"ride_id","rideable_type","started_at","ended_at","start_station_name","start_station_id","end_station_name","end_station_id","start_lat","start_lng","end_lat","end_lng","member_casual"
"9D748D24B4D7B570","classic_bike","2022-10-01 19:26:08","2022-10-01 19:34:22","Wilton Ave & Diversey Pkwy","TA1306000014","Clifton Ave & Armitage Ave","TA1307000163",41.932418,-87.652705,41.918216,-87.656936,"member"
"C8F17A1542C3A1A1","electric_bike","2022-10-04 22:34:52","2022-10-04 22:39:29","Rockwell St & Eastwood Ave","KA1504000093","Damen Ave & Leland Ave","TA1307000158",41.9658153333333,-87.693668,41.967094,-87.679028,"member"
"1A76F1B43766DDDF","docked_bike","2022-10-21 18:20:40","2022-10-21 18:53:58","Halsted St & Dickens Ave","13192","Paulina St & Montrose Ave","TA1309000021",41.919936,-87.64883,41.961507,-87.671387,"casual"
"13F35DBE6E686461","classic_bike","2022-10-09 11:38:51","2022-10-09 11:46:10","Milwaukee Ave & Wabansia Ave","13243","Ashland Ave & Division St","13061",41.912616,-87.681391,41.90345,-87.667747,"casual"
"9A7A9B32321A970A","classic_bike","2022-10-11 19:17:08","2022-10-11 19:23:58","Ada St & Washington Blvd","13353","Clinton St & Madison St","TA1305000032",41.88283,-87.661206,41.8827519656856,-87.641190290451,"member"
"EF7A08ED7E88D28D","classic_bike","2022-10-06 18:36:37","2022-10-06 18:38:39","Halsted St & Willow St","TA1307000166","Halsted St & Clybourn Ave","331",41.913865,-87.648755,41.909668,-87.648128,"member"
"CA1429FDE38D5247","electric_bike","2022-10-13 09:09:44","2022-10-13 09:15:57","Clinton St & Roosevelt Rd","WL-008","Jefferson St & Monroe St","WL-011",41.8671158333333,-87.6409878333333,41.8803296336346,-87.6427459716797,"member"
"B2D4C77C8ED466B9","electric_bike","2022-10-08 15:18:50","2022-10-08 16:00:33","","","","",41.91,-87.64,41.92,-87.63,"casual"
"70296A6509901589","electric_bike","2022-10-02 17:25:50","2022-10-02 17:32:24","Lincoln Ave & Fullerton Ave","TA1309000058","Sheffield Ave & Wellington Ave","TA1307000052",41.924216,-87.6464065,41.9362534831413,-87.6526620984077,"member"
"6273C795B85D933C","classic_bike","2022-10-13 10:53:30","2022-10-13 11:04:20","McClurg Ct & Ohio St","TA1306000029","Dearborn St & Adams St","TA1305000005",41.8925921197097,-87.6172891259193,41.8793563587,-87.6297910363,"member"
"956251623A32E71D","classic_bike","2022-10-30 00:43:37","2022-10-30 00:44:40","State St & Kinzie St","13050","State St & Kinzie St","13050",41.8893754666317,-87.6270765066147,41.8893754666317,-87.6270765066147,"casual"
"1A90F069E6BD5B8E","electric_bike","2022-10-02 15:22:34","2022-10-02 15:39:27","Sheffield Ave & Waveland Ave","TA1307000126","","",41.949197,-87.6545245,41.9,-87.63,"casual"
"C0DB491611EE20B3","classic_bike","2022-10-16 15:19:39","2022-10-16 15:35:51","Wabash Ave & Grand Ave","TA1307000117","State St & Pearson St","TA1307000061",41.891466,-87.626761,41.897448,-87.628722,"member"
"A406F42DC2794474","electric_bike","2022-10-13 07:55:03","2022-10-13 08:01:35","Wells St & Hubbard St","TA1307000151","Dearborn St & Monroe St","TA1305000006",41.8900655,-87.6342045,41.881319815,-87.6295209193,"casual"
"9E8E55425C959630","classic_bike","2022-10-12 17:52:29","2022-10-12 18:01:24","Ritchie Ct & Banks St","KA1504000134","LaSalle St & Illinois St","13430",41.906866,-87.626217,41.890762,-87.631697,"casual"
"F982DDE1BF7F40E9","classic_bike","2022-10-31 15:35:40","2022-10-31 16:44:20","Greenview Ave & Fullerton Ave","TA1307000001","Greenview Ave & Fullerton Ave","TA1307000001",41.92533,-87.6658,41.92533,-87.6658,"member"
"5E2B5BDC5ED3D9D0","electric_bike","2022-10-17 13:56:09","2022-10-17 14:04:23","Sheridan Rd & Buena Ave","TA1309000027","Montrose Harbor","TA1308000012",41.9584973333333,-87.6549571666667,41.963982,-87.638181,"casual"
"C459C9BD1352C9CF","electric_bike","2022-10-05 11:57:10","2022-10-05 12:05:56","","","Prairie Ave & Garfield Blvd","TA1307000160",41.79,-87.6,41.794853,-87.618691,"member"
"40BF0318AF2457FF","electric_bike","2022-10-16 01:35:11","2022-10-16 01:37:57","Stockton Dr & Wrightwood Ave","13276","Lakeview Ave & Fullerton Pkwy","TA1309000019",41.9313005,-87.6387423333333,41.925858,-87.638973,"member"
"E7BEC7FF95D0F658","electric_bike","2022-10-10 18:50:48","2022-10-10 18:59:43","Clark St & Winnemac Ave","TA1309000035","Broadway & Berwyn Ave","13109",41.9733948333333,-87.6677525,41.978353,-87.659753,"casual"
"062D0A28764A0105","classic_bike","2022-10-22 13:55:23","2022-10-22 14:13:33","Sheridan Rd & Loyola Ave","RP-009","Clark St & Schreiber Ave","KA1504000156",42.00104377979,-87.6611982433,41.99925182186,-87.6713773393,"member"
"F65567064C117CC8","electric_bike","2022-10-01 20:00:47","2022-10-01 20:04:42","","","","",41.92,-87.66,41.91,-87.65,"casual"
"78D659FA47D0391E","classic_bike","2022-10-11 09:26:32","2022-10-11 09:33:52","Rush St & Superior St","15530","Wells St & Hubbard St","TA1307000151",41.89576474564,-87.6259080327,41.889906,-87.634266,"casual"
"17BC42BBD80A9E40","classic_bike","2022-10-10 16:49:59","2022-10-10 17:15:50","Daley Center Plaza","TA1306000010","McCormick Place","TA1305000004",41.884241,-87.629634,41.8513751729,-87.6188346489,"member"
"436E2072416BC20B","electric_bike","2022-10-12 12:56:12","2022-10-12 14:33:50","Cottage Grove Ave & 51st St","TA1309000067","Cottage Grove Ave & 51st St","TA1309000067",41.803003311,-87.606637478,41.803038,-87.606615,"member"
"59466F7F435A2499","electric_bike","2022-10-31 19:37:36","2022-10-31 19:47:59","Clinton St & Roosevelt Rd","WL-008","Racine Ave & 18th St","13164",41.867065787,-87.641012192,41.858166,-87.656495,"member"
"EA5B8C6ECFAC3C94","electric_bike","2022-10-30 14:05:46","2022-10-30 14:32:25","","","Desplaines St & Jackson Blvd","15539",41.83,-87.63,41.8781189009123,-87.6439476013184,"member"
"2C17496A44236D0C","electric_bike","2022-10-12 20:51:07","2022-10-12 21:00:59","","","W Armitage Ave & N Sheffield Ave","20254.0",41.92,-87.63,41.92,-87.65,"member"
"1EEC5A06B053B4EF","classic_bike","2022-10-25 11:14:36","2022-10-25 11:20:37","Wells St & Polk St","SL-011","Halsted St & Polk St","TA1307000121",41.8727315422631,-87.6335164904594,41.87184,-87.64664,"member"
"9C0A26F5C0A0E59F","electric_bike","2022-10-22 14:55:20","2022-10-22 15:10:18","","","Damen Ave & Chicago Ave","13132",41.92,-87.69,41.895769,-87.67722,"member"
"1F9BA315A2EF6C1F","classic_bike","2022-10-09 06:51:46","2022-10-09 07:11:20","Michigan Ave & 8th St","623","Wabash Ave & Grand Ave","TA1307000117",41.872773,-87.623981,41.891466,-87.626761,"casual"
"A0F3CD42F564ABE6","electric_bike","2022-10-11 12:31:10","2022-10-11 12:31:27","Racine Ave & Randolph St","13155","Racine Ave & Randolph St","13155",41.8840026666667,-87.6569101666667,41.884069,-87.656853,"member"
"7A2C74CA6FEF6311","classic_bike","2022-10-09 12:02:26","2022-10-09 12:18:49","Loomis St & Lexington St","13332","Blue Island Ave & 18th St","13135",41.872187,-87.661501,41.857556,-87.661535,"member"
"DEC8B2E7A664C08F","classic_bike","2022-10-02 11:05:19","2022-10-02 12:30:27","Sheffield Ave & Webster Ave","TA1309000033","Sheffield Ave & Webster Ave","TA1309000033",41.92154,-87.653818,41.92154,-87.653818,"casual"
"1EF79912C53DAB7D","classic_bike","2022-10-09 15:07:16","2022-10-09 15:21:38","Michigan Ave & Washington St","13001","Delano Ct & Roosevelt Rd","KA1706005007",41.8839840647265,-87.6246839761734,41.867491,-87.63219,"member"
"5D565555B716A0FC","classic_bike","2022-10-10 13:20:36","2022-10-10 13:28:09","Wilton Ave & Diversey Pkwy","TA1306000014","Halsted St & Willow St","TA1307000166",41.932418,-87.652705,41.913865,-87.648755,"casual"
"BE04BA5C38B6025E","classic_bike","2022-10-20 18:25:37","2022-10-20 18:30:07","Pine Grove Ave & Waveland Ave","TA1307000150","Broadway & Belmont Ave","13277",41.9494727408833,-87.6464527845383,41.940106,-87.645451,"member"
"9557B79670DDF19D","classic_bike","2022-10-30 03:24:51","2022-10-30 03:47:15","California Ave & Cortez St","17660","State St & Chicago Ave","21544",41.900363,-87.696704,41.8966172004075,-87.628578543663,"member"
"51AB6E382794EE45","classic_bike","2022-10-05 19:25:51","2022-10-05 19:37:38","Damen Ave & Wellington Ave","13268","Clark St & Wrightwood Ave","TA1305000014",41.93588,-87.67842,41.929546,-87.643118,"member"
"7FFA62CF57B3BC22","electric_bike","2022-10-28 09:28:55","2022-10-28 09:41:20","Racine Ave & Washington Blvd","654","Cityfront Plaza Dr & Pioneer Ct","13427",41.88307,-87.6570551666667,41.890573,-87.622072,"member"
"9A700B1AA41129AF","classic_bike","2022-10-23 14:38:50","2022-10-23 15:59:05","Ogden Ave & Chicago Ave","TA1305000020","Theater on the Lake","TA1308000001",41.896362458,-87.6540612729,41.926277,-87.630834,"casual"
"0B99468EB945B97A","classic_bike","2022-10-02 15:40:37","2022-10-02 15:45:11","Broadway & Barry Ave","13137","Sheffield Ave & Wellington Ave","TA1307000052",41.9375823160063,-87.6440978050232,41.9362534831413,-87.6526620984077,"member"
"6CA749063C6A548D","electric_bike","2022-10-01 14:46:49","2022-10-01 15:01:52","Christiana Ave & Lawrence Ave","15615","Kedzie Ave & Milwaukee Ave","13085",41.9683261666667,-87.7119003333333,41.929567,-87.707857,"casual"
"274C2F162D8E471F","electric_bike","2022-10-28 08:38:37","2022-10-28 08:47:13","Sheffield Ave & Kingsbury St","13154","Damen Ave & Division St","13136",41.9106495,-87.6531888333333,41.903266,-87.678435,"member"
"7F89332B406E4C26","electric_bike","2022-10-24 19:27:39","2022-10-24 19:32:08","Ashland Ave & Blackhawk St","13224","Wood St & Milwaukee Ave","13221",41.9071263333333,-87.6671971666667,41.907655,-87.672552,"member"
"07AC390CFAC473A6","classic_bike","2022-10-04 12:15:11","2022-10-04 12:21:18","Ravenswood Ave & Lawrence Ave","TA1309000066","Western Ave & Leland Ave","TA1307000140",41.96909,-87.674237,41.966399801841,-87.6887042820454,"member"
"6873BB441242F81F","docked_bike","2022-10-22 13:08:55","2022-10-22 13:56:10","Glenwood Ave & Morse Ave","KA1504000175","Sheridan Rd & Argyle St","13059",42.007972,-87.665502,41.973287,-87.65476,"casual"
"20C254B3113E083A","classic_bike","2022-10-27 08:03:00","2022-10-27 08:11:56","Canal St & Jackson Blvd","13138","Larrabee St & Kingsbury St","TA1306000009",41.877245,-87.639366,41.897764,-87.642884,"member"
"76C50C514C8AD5C8","electric_bike","2022-10-15 17:05:01","2022-10-15 17:10:46","Orleans St & Chestnut St (NEXT Apts)","620","Rush St & Superior St","15530",41.898058295,-87.637680411,41.89576474564,-87.6259080327,"member"
"19FCA027E923274A","electric_bike","2022-10-31 17:29:34","2022-10-31 18:06:16","","","","",41.94,-87.7,41.94,-87.7,"casual"
"C02C92F790DD13A4","electric_bike","2022-10-10 20:28:40","2022-10-10 20:30:48","Kimbark Ave & 53rd St","TA1309000037","","",41.799597979,-87.594758153,41.8,-87.6,"member"
"9B5CFC4FEB0EBB31","docked_bike","2022-10-14 22:15:01","2022-10-14 22:25:44","Wells St & Hubbard St","TA1307000151","Federal St & Polk St","SL-008",41.889906,-87.634266,41.872078,-87.629544,"casual"
"AE89E86953B6E612","classic_bike","2022-10-24 22:22:44","2022-10-24 22:46:30","Cornell Ave & Hyde Park Blvd","KA1503000007","Cottage Grove Ave & 67th St","KA1503000031",41.802406,-87.586924,41.77372095205,-87.60563486,"member"
"7861DB00DDA8A03B","electric_bike","2022-10-28 17:36:57","2022-10-28 18:03:48","Fairbanks St & Superior St","18003","Ashland Ave & Blackhawk St","13224",41.895948,-87.6202591666667,41.907066,-87.667252,"member"
"76EF66298BF31710","electric_bike","2022-10-30 14:28:34","2022-10-30 14:37:32","Lakeview Ave & Fullerton Pkwy","TA1309000019","","",41.925927043,-87.639030814,41.93,-87.66,"member"
"3BF72F81EA03BEA8","classic_bike","2022-10-18 19:57:00","2022-10-18 20:00:46","Lincoln Ave & Sunnyside Ave","TA1307000156","Western Ave & Leland Ave","TA1307000140",41.963004,-87.684781,41.966399801841,-87.6887042820454,"member"
"74A152D90349864B","classic_bike","2022-10-24 17:03:50","2022-10-24 17:21:27","DuSable Lake Shore Dr & North Blvd","LF-005","DuSable Lake Shore Dr & Wellington Ave","TA1307000041",41.911722,-87.626804,41.9366884494997,-87.6368290185928,"casual"
"7C91EE77828F5E43","electric_bike","2022-10-15 09:54:42","2022-10-15 09:59:06","Cityfront Plaza Dr & Pioneer Ct","13427","Michigan Ave & Pearson St","13034",41.8904356666667,-87.622068,41.89766,-87.62351,"casual"
"BF7F7434E7F70FEE","electric_bike","2022-10-19 19:55:07","2022-10-19 20:00:20","Clark St & Elm St","TA1307000039","Mies van der Rohe Way & Chestnut St","15529",41.9030751666667,-87.6310818333333,41.8985866514,-87.6219152258,"member"
"C01C42DF81BF8B44","electric_bike","2022-10-22 16:23:49","2022-10-22 16:29:02","Michigan Ave & Washington St","13001","","",41.883889794,-87.624778628,41.89,-87.62,"member"
"D394779E9823F639","classic_bike","2022-10-16 16:12:55","2022-10-16 16:22:29","Fairbanks Ct & Grand Ave","TA1305000003","Rush St & Cedar St","KA1504000133",41.8918473721099,-87.6205801963806,41.90230870122,-87.627690528,"member"
"8480F9559788FE69","electric_bike","2022-10-27 15:50:45","2022-10-27 15:53:16","","","Halsted St & Roscoe St","TA1309000025",41.94,-87.65,41.94367,-87.64895,"member"
"40C2C7DEF4D8AE6A","electric_bike","2022-10-20 16:41:50","2022-10-20 16:48:04","Franklin St & Jackson Blvd","TA1305000025","Kingsbury St & Erie St","13265",41.877584815,-87.635212183,41.8938080562436,-87.6416972279549,"member"
"51514C3CB467DADB","electric_bike","2022-10-18 08:36:42","2022-10-18 08:42:53","Clark St & Elm St","TA1307000039","Larrabee St & Kingsbury St","TA1306000009",41.903032064,-87.631331086,41.897764,-87.642884,"member"
"68CC0A0E9F430113","electric_bike","2022-10-04 21:14:21","2022-10-04 21:30:49","Campbell Ave & Montrose Ave","15623","","",41.9616111666667,-87.691178,41.96,-87.67,"casual"
"C46FE04ABDC8994E","electric_bike","2022-10-03 20:01:20","2022-10-03 20:12:32","Peoria St & Jackson Blvd","13158","Wells St & Hubbard St","TA1307000151",41.8776168333333,-87.6494443333333,41.889906,-87.634266,"member"
"99619A7CC067737C","classic_bike","2022-10-22 18:25:37","2022-10-22 18:43:34","Morgan St & 31st St","TA1308000046","Western Ave & 24th St","TA1309000003",41.8378,-87.65114,41.84847,-87.685109,"casual"
"15807113D6D96DDD","electric_bike","2022-10-23 22:01:01","2022-10-23 22:07:17","Sedgwick St & Schiller St","TA1307000143","Dearborn Pkwy & Delaware Pl","TA1307000128",41.9076083333333,-87.6384136666667,41.898969,-87.629912,"member"
"4860BD0C76715A25","classic_bike","2022-10-03 09:08:52","2022-10-03 09:11:45","Lincoln Park Conservatory","LP-","Lincoln Park Conservatory","LP-",41.9239313113662,-87.6358245313168,41.9239313113662,-87.6358245313168,"member"
"F0B80D609C975041","classic_bike","2022-10-03 22:55:41","2022-10-03 23:18:50","Halsted St & Clybourn Ave","331","Halsted St & 18th St","13099",41.909668,-87.648128,41.8575056803172,-87.6459914445877,"casual"
"060E2A390B5123F7","electric_bike","2022-10-22 11:46:53","2022-10-22 11:52:26","Winthrop Ave & Lawrence Ave","TA1308000021","Ravenswood Ave & Lawrence Ave","TA1309000066",41.968940735,-87.657698154,41.96909,-87.674237,"member"
"06CB0BEC0EEC231D","electric_bike","2022-10-29 22:01:58","2022-10-29 22:06:51","","","Long Ave & Belden Ave","313",41.93,-87.76,41.92,-87.76,"casual"
"BA75660C1295D1F7","classic_bike","2022-10-05 09:53:10","2022-10-05 10:03:28","Larrabee St & Kingsbury St","TA1306000009","Mies van der Rohe Way & Chicago Ave","13338",41.897764,-87.642884,41.8969446263708,-87.6217576861382,"casual"
"465B905D737ABE75","electric_bike","2022-10-14 13:46:12","2022-10-14 13:50:37","Wacker Dr & Washington St","KA1503000072","Racine Ave & Washington Blvd","654",41.8833185,-87.6372023333333,41.883073,-87.656952,"casual"
"494FB835277E08A8","classic_bike","2022-10-14 13:14:38","2022-10-14 13:28:34","Halsted St & Clybourn Ave","331","Dayton St & North Ave","13058",41.909668,-87.648128,41.9105780349,-87.6494219288,"casual"
"67D58FFA71960231","electric_bike","2022-10-25 18:57:24","2022-10-25 19:00:55","Kingsbury St & Kinzie St","KA1503000043","Clinton St & Washington Blvd","WL-012",41.889215946,-87.638606191,41.88338,-87.64117,"member"
"E958EF15919738D1","electric_bike","2022-10-29 02:46:20","2022-10-29 02:53:49","Broadway & Barry Ave","13137","Broadway & Cornelia Ave","13278",41.9377128333333,-87.6441603333333,41.945529,-87.646439,"casual"
"19E8603D2C833106","electric_bike","2022-10-01 18:43:51","2022-10-01 18:56:31","Wabash Ave & Grand Ave","TA1307000117","Clinton St & Madison St","TA1305000032",41.8914808333333,-87.6267945,41.8827519656856,-87.641190290451,"member"
"BC6EB480668F8F02","electric_bike","2022-10-03 14:07:54","2022-10-03 14:16:36","Southport Ave & Roscoe St","13071","Sheffield Ave & Webster Ave","TA1309000033",41.9437148333333,-87.6638248333333,41.92154,-87.653818,"member"
"2FA3534887BFE195","classic_bike","2022-10-17 13:26:52","2022-10-17 13:32:57","Wabash Ave & Grand Ave","TA1307000117","Cityfront Plaza Dr & Pioneer Ct","13427",41.891466,-87.626761,41.890573,-87.622072,"member"
"68BE97159B6762F9","classic_bike","2022-10-17 16:41:13","2022-10-17 17:12:13","St. Clair St & Erie St","13016","Lakefront Trail & Wilson Ave","639",41.8943451374243,-87.6227983832359,41.965845,-87.645361,"member"
"CBE844EC997E4BA2","electric_bike","2022-10-24 11:26:04","2022-10-24 11:27:34","Wabash Ave & Adams St","KA1503000015","Dearborn St & Monroe St","TA1305000006",41.8797135,-87.6256288333333,41.881319815,-87.6295209193,"member"
"DA8E33A666326ECA","electric_bike","2022-10-16 09:37:41","2022-10-16 09:37:43","May St & Taylor St","13160","May St & Taylor St","13160",41.869353414,-87.655396223,41.8694821,-87.6554864,"member"
"6AE690D33E0E67BE","classic_bike","2022-10-15 13:03:51","2022-10-15 13:14:50","Lakefront Trail & Wilson Ave","639","Lakefront Trail & Bryn Mawr Ave","15576",41.965845,-87.645361,41.9840441151921,-87.6522812247276,"casual"
"A8921027900B290E","electric_bike","2022-10-01 00:36:30","2022-10-01 01:40:33","Michigan Ave & Lake St","TA1305000011","Stetson Ave & South Water St","TA1308000029",41.8859928333333,-87.624743,41.886835,-87.62232,"casual"
"BC9C7E53EB29C0F9","classic_bike","2022-10-10 21:03:58","2022-10-10 21:11:41","Ridge Blvd & Howard St","514","Greenview Ave & Jarvis Ave","520",42.019276,-87.68452,42.015962,-87.66857,"casual"
"DBF1746EA2B99F43","electric_bike","2022-10-21 17:42:02","2022-10-21 17:50:38","State St & 33rd St","13216","Shields Ave & 31st St","KA1503000038",41.834704518,-87.625816464,41.838464,-87.635406,"casual"
"71DA5E93DB16AD36","classic_bike","2022-10-03 17:04:47","2022-10-03 17:09:47","Ellis Ave & 55th St","KA1504000076","Ellis Ave & 60th St","KA1503000014",41.79430062054,-87.6014497734,41.78509714636,-87.6010727606,"member"
"064996B1FA3CC059","electric_bike","2022-10-21 06:36:05","2022-10-21 06:37:51","LaSalle St & Jackson Blvd","TA1309000004","Dearborn St & Monroe St","TA1305000006",41.8778918333333,-87.6317205,41.881319815,-87.6295209193,"member"
"F016ECC30B6A4728","electric_bike","2022-10-07 20:29:43","2022-10-07 20:53:03","Millennium Park","13008","Blue Island Ave & 18th St","13135",41.881062984,-87.624124646,41.857556,-87.661535,"member"
"2A0AA33E5E378A16","classic_bike","2022-10-17 10:17:11","2022-10-17 10:18:53","Dayton St & North Ave","13058","Sheffield Ave & Kingsbury St","13154",41.9105780349,-87.6494219288,41.910522,-87.653106,"member"
"D09F217418AEF9DA","electric_bike","2022-10-14 19:08:45","2022-10-14 19:14:55","Wentworth Ave & 35th St","KA1503000005","","",41.8308906666667,-87.632446,41.82,-87.63,"casual"
"03E1698F9ABCB504","electric_bike","2022-10-20 18:06:37","2022-10-20 18:24:54","Desplaines St & Kinzie St","TA1306000003","","",41.88857305,-87.64449513,41.93,-87.69,"member"
"6F513109FB0E0557","electric_bike","2022-10-28 00:05:54","2022-10-28 00:17:13","Indiana Ave & Roosevelt Rd","SL-005","Columbus Dr & Randolph St","13263",41.867884,-87.623033,41.884728,-87.619521,"casual"
"5C1F26A1FB121958","electric_bike","2022-10-01 19:32:03","2022-10-01 19:45:09","DuSable Lake Shore Dr & North Blvd","LF-005","DuSable Lake Shore Dr & North Blvd","LF-005",41.9116948333333,-87.6267766666667,41.911722,-87.626804,"casual"
"FF6E1D9EC60B9AD4","electric_bike","2022-10-06 17:08:48","2022-10-06 17:27:11","Sedgwick St & Webster Ave","13191","Clinton St & Jackson Blvd","638",41.922172,-87.6388828333333,41.8783166118307,-87.6409810781479,"member"
"8E4258A283388A6D","classic_bike","2022-10-30 01:53:47","2022-10-30 02:16:51","Dayton St & North Ave","13058","Albany Ave & Bloomingdale Ave","15655",41.9105780349,-87.6494219288,41.91402671273,-87.705126462,"casual"
"73938E81259870EC","classic_bike","2022-10-21 19:35:30","2022-10-21 19:47:52","State St & 19th St","SL-013","Michigan Ave & Ida B Wells Dr","TA1305000010",41.856594,-87.627542,41.876243,-87.624426,"casual"
"0B85AB9B0328701F","classic_bike","2022-10-02 11:49:10","2022-10-02 12:39:29","Clark St & Drummond Pl","TA1307000142","Lakefront Trail & Bryn Mawr Ave","15576",41.931248,-87.644336,41.9840441151921,-87.6522812247276,"casual"
"F73676C02CF73C13","electric_bike","2022-10-25 07:00:18","2022-10-25 07:04:02","Canal St & Monroe St","13056","LaSalle St & Jackson Blvd","TA1309000004",41.881652713,-87.63941443,41.878166,-87.631929,"member"
"1B847671E3FB0F9F","electric_bike","2022-10-22 18:22:03","2022-10-22 18:42:52","Millennium Park","13008","Aberdeen St & Randolph St","18062",41.881147742,-87.624029636,41.884114,-87.654264,"casual"
"F1B438943E33D52A","electric_bike","2022-10-27 20:06:36","2022-10-27 20:09:59","University Ave & 57th St","KA1503000071","Kimbark Ave & 53rd St","TA1309000037",41.791458249,-87.600132585,41.799568,-87.594747,"member"
"599B5680AAB89BC9","electric_bike","2022-10-12 17:33:50","2022-10-12 17:40:06","Dayton St & North Ave","13058","Elston Ave & Cortland St","TA1305000039",41.910577536,-87.649457335,41.9164334291265,-87.6667463779449,"member"
"93BE8884144ABBB5","electric_bike","2022-10-22 16:43:14","2022-10-22 16:48:50","N Paulina St & Lincoln Ave","20253.0","Damen Ave & Melrose Ave","13143",41.94,-87.67,41.9406,-87.6785,"member"
"F4B9459C868F3567","electric_bike","2022-10-04 07:33:40","2022-10-04 07:43:24","Larrabee St & Division St","KA1504000079","Franklin St & Adams St (Temp)","TA1309000008",41.903576255,-87.643347263,41.8794340914001,-87.6355040073395,"member"
"C9A2B0CB26318C91","docked_bike","2022-10-01 23:17:20","2022-10-01 23:39:57","Michigan Ave & Washington St","13001","Michigan Ave & Washington St","13001",41.883984,-87.624684,41.883984,-87.624684,"casual"
"53786988E9745672","electric_bike","2022-10-11 08:42:50","2022-10-11 08:48:21","Canal St & Adams St","13011","Morgan St & Polk St","TA1307000130",41.8797318333333,-87.6399696666667,41.871737,-87.65103,"member"
"8D0F034FE57E1F15","classic_bike","2022-10-25 16:34:50","2022-10-25 16:50:04","Hermitage Ave & Polk St","13080","Ashland Ave & Augusta Blvd","13248",41.871514,-87.669886,41.899643,-87.6677,"member"
"E65FFEB7D443ACC0","electric_bike","2022-10-26 12:01:28","2022-10-26 12:06:01","","","Wells St & Huron St","TA1306000012",41.89,-87.64,41.894722,-87.634362,"member"
"B43EE8607251EF0C","classic_bike","2022-10-17 13:05:29","2022-10-17 13:12:43","Green St & Washington Blvd","13053","LaSalle St & Adams St","KA1503000034",41.8831813059739,-87.6487246155739,41.87934437346,-87.6319852213,"member"
"C8BF9F96862ECAF8","electric_bike","2022-10-09 14:52:03","2022-10-09 15:01:12","Clark St & Bryn Mawr Ave","KA1504000151","Winthrop Ave & Lawrence Ave","TA1308000021",41.983588099,-87.669255257,41.968812,-87.657659,"casual"
"2D5EF39E17ED2DAC","electric_bike","2022-10-14 15:07:25","2022-10-14 15:10:36","","","Halsted St & Wrightwood Ave","TA1309000061",41.93,-87.65,41.929143,-87.649077,"member"
"B1326010A0671773","classic_bike","2022-10-09 07:16:33","2022-10-09 07:27:28","MLK Jr Dr & 29th St","TA1307000139","Wentworth Ave & 33rd St","15445",41.842052,-87.617,41.83452988563,-87.6318229814,"member"
"25ECF066CE7C9929","electric_bike","2022-10-22 01:03:43","2022-10-22 01:08:23","Western Ave & Roscoe St","15634","","",41.943,-87.6873246666667,41.95,-87.69,"casual"
"5E285B3C111075D2","electric_bike","2022-10-08 12:08:34","2022-10-08 12:20:56","Damen Ave & Pierce Ave","TA1305000041","Ashland Ave & Chicago Ave","13247",41.9094298333333,-87.677612,41.8951727127816,-87.6675470173359,"member"
"DC184B34C9C99941","electric_bike","2022-10-18 08:49:15","2022-10-18 08:49:23","Rush St & Superior St","15530","Rush St & Superior St","15530",41.895626187,-87.626078486,41.89576474564,-87.6259080327,"member"
"3CE34E57989C5E82","classic_bike","2022-10-31 08:30:53","2022-10-31 08:38:26","Green St & Madison St","TA1307000120","Dearborn St & Monroe St","TA1305000006",41.881892,-87.648789,41.881319815,-87.6295209193,"member"
"9DC38DD94E2B0932","classic_bike","2022-10-16 13:17:53","2022-10-16 13:28:07","Ashland Ave & Wellington Ave","13269","Seeley Ave & Roscoe St","13144",41.936083,-87.669807,41.943403,-87.679618,"member"
"E5BE0A91EAED41D3","classic_bike","2022-10-15 17:20:55","2022-10-15 17:28:14","Clark St & Berwyn Ave","KA1504000146","Winthrop Ave & Lawrence Ave","TA1308000021",41.9780306224866,-87.668564915657,41.968812,-87.657659,"member"
"FFDF8EBC11C7A31D","classic_bike","2022-10-03 17:59:07","2022-10-03 18:08:58","Dearborn Pkwy & Delaware Pl","TA1307000128","Clark St & Lincoln Ave","13179",41.898969,-87.629912,41.915689,-87.6346,"casual"
"1EF67074C1854A50","electric_bike","2022-10-05 15:23:46","2022-10-05 15:26:09","Western Ave & 104th St","20123","","",41.704644442,-87.681156516,41.71,-87.67,"casual"
"D008FCF5E91EE5EB","classic_bike","2022-10-04 17:33:31","2022-10-04 17:43:15","Clark St & Wrightwood Ave","TA1305000014","Clark St & Newport St","632",41.929546,-87.643118,41.94454,-87.654678,"casual"
"22CD3B75AFEFF7FB","classic_bike","2022-10-08 19:51:36","2022-10-08 20:08:41","Wabash Ave & 9th St","TA1309000010","MLK Jr Dr & 29th St","TA1307000139",41.870769,-87.625734,41.842052,-87.617,"casual"
"FE7D2701DD310565","electric_bike","2022-10-21 22:21:20","2022-10-21 22:27:32","Southport Ave & Clybourn Ave","TA1309000030","Halsted St & Willow St","TA1307000166",41.9207831666667,-87.6636986666667,41.913865,-87.648755,"member"
"DB3501627F321CA1","classic_bike","2022-10-02 19:19:48","2022-10-02 19:22:18","Leavitt St & North Ave","TA1308000005","Campbell Ave & North Ave","13257",41.910509366664,-87.6823890209198,41.910535,-87.689556,"member"
"09A64F52617C4978","classic_bike","2022-10-08 15:14:22","2022-10-08 15:48:43","Ashland Ave & Division St","13061","Ashland Ave & Belle Plaine Ave","13249",41.90345,-87.667747,41.956057,-87.668835,"casual"
"C3DDE0B469CC2B24","electric_bike","2022-10-27 23:31:02","2022-10-27 23:34:54","Racine Ave & Fullerton Ave (Temp)","TA1306000026","Greenview Ave & Diversey Pkwy","13294",41.9251766666667,-87.6573003333333,41.9325896342979,-87.6659363508224,"member"
"A98A2A002410CA7E","electric_bike","2022-10-08 21:01:28","2022-10-08 21:19:56","","","","",41.91,-87.67,41.9,-87.63,"member"
"847FE05E78D92A2F","electric_bike","2022-10-01 10:11:56","2022-10-01 10:21:47","","","","",41.93,-87.65,41.95,-87.65,"member"
"9E16CA7742758440","classic_bike","2022-10-27 21:54:27","2022-10-27 22:09:58","Bissell St & Armitage Ave*","chargingstx1","Campbell Ave & North Ave","13257",41.9182955629354,-87.6521833240986,41.910535,-87.689556,"member"
"F88EA9FD5C64AD57","classic_bike","2022-10-08 10:19:41","2022-10-08 10:30:44","Clarendon Ave & Junior Ter","13389","Broadway & Belmont Ave","13277",41.961004,-87.649603,41.940106,-87.645451,"member"
"A25BE078C56C0EA1","electric_bike","2022-10-08 17:10:25","2022-10-08 17:28:13","Damen Ave & Cortland St","13133","Racine Ave & Wrightwood Ave","TA1309000059",41.9159715,-87.6774223333333,41.928887,-87.658971,"casual"
"75820F2DBA686BDD","electric_bike","2022-10-15 18:45:43","2022-10-15 19:01:28","Damen Ave & Foster Ave","KA1504000149","Montrose Harbor","TA1308000012",41.9756238333333,-87.6794591666667,41.963982,-87.638181,"casual"
"8FEE1E63BEE2869F","electric_bike","2022-10-18 19:32:42","2022-10-18 19:44:08","Franklin St & Chicago Ave","13017","Peoria St & Jackson Blvd","13158",41.896752,-87.63571,41.8776415962753,-87.6496177911758,"member"
"C53146C64A6E1275","electric_bike","2022-10-05 22:43:06","2022-10-05 22:49:53","Leavitt St & North Ave","TA1308000005","California Ave & Altgeld St","15646",41.910104513,-87.682286143,41.92669,-87.697668,"casual"
"48A833FA3B1CB41D","classic_bike","2022-10-05 12:37:54","2022-10-05 12:42:44","Broadway & Barry Ave","13137","Wilton Ave & Diversey Pkwy*","chargingstx0",41.9375823160063,-87.6440978050232,41.932418,-87.652705,"member"
"DA0BBCB8B689B54F","electric_bike","2022-10-27 13:56:33","2022-10-27 14:11:01","","","Sedgwick St & North Ave","TA1307000038",41.93,-87.65,41.911386,-87.638677,"member"
"11BF0F96F2AA186B","electric_bike","2022-10-08 11:42:39","2022-10-08 11:51:37","Clark St & Lincoln Ave","13179","DuSable Lake Shore Dr & Wellington Ave","TA1307000041",41.9158103333333,-87.6347226666667,41.9366884494997,-87.6368290185928,"member"
"5F5ADCD41FBE6F6F","classic_bike","2022-10-05 21:19:01","2022-10-05 21:37:10","Clark St & Lake St","KA1503000012","Damen Ave & Thomas St (Augusta Blvd)","TA1307000070",41.88602082773,-87.6308760584,41.901315,-87.677409,"member"
"ABF3CE6D9A2FC726","classic_bike","2022-10-14 16:42:34","2022-10-14 17:36:06","DuSable Lake Shore Dr & Diversey Pkwy","TA1309000039","DuSable Lake Shore Dr & Diversey Pkwy","TA1309000039",41.932588,-87.636427,41.932588,-87.636427,"member"
"97FE3A2007374210","electric_bike","2022-10-13 20:29:14","2022-10-13 20:29:47","Narragansett & Wrightwood","314","Narragansett & Wrightwood","314",41.93,-87.79,41.93,-87.79,"casual"
"70D7D71B7597B2F2","electric_bike","2022-10-17 08:40:45","2022-10-17 08:47:31","","","","",41.8,-87.59,41.79,-87.6,"casual"
"AB75FF81AD328651","electric_bike","2022-10-19 12:23:28","2022-10-19 12:25:45","","","","",42,-87.66,41.99,-87.66,"casual"
"5BA63BF687C27FBA","electric_bike","2022-10-14 14:08:25","2022-10-14 14:11:23","Broadway & Wilson Ave","13074","","",41.9651781666667,-87.6584378333333,41.97,-87.66,"casual"
"DB8C1DB366AED29F","electric_bike","2022-10-27 13:51:12","2022-10-27 13:55:51","Kedzie Ave & 48th Pl","382","Kedzie Ave & 45th St","342",41.8,-87.7,41.81,-87.7,"member"
"6A97EC3CAD82694B","classic_bike","2022-10-06 09:16:09","2022-10-06 09:20:18","Ogden Ave & Congress Pkwy","13081","Wood St & Taylor St (Temp)","13285",41.87501,-87.67328,41.8692652184382,-87.6737308502197,"member"
"81F4EC0FD3DC5BD2","electric_bike","2022-10-08 09:57:29","2022-10-08 09:59:42","Sheffield Ave & Webster Ave","TA1309000033","Racine Ave & Fullerton Ave (Temp)","TA1306000026",41.921682358,-87.653809071,41.925194265177,-87.657258734107,"casual"
"825E0E061DE8CE09","electric_bike","2022-10-08 20:54:04","2022-10-08 21:06:22","Dearborn St & Erie St","13045","Clinton St & Jackson Blvd","638",41.8942178333333,-87.6292831666667,41.8783166118307,-87.6409810781479,"member"
"63C2C11B1F2F388B","electric_bike","2022-10-20 12:24:59","2022-10-20 12:31:48","","","Lake Park Ave & 56th St","TA1309000063",41.79,-87.6,41.793242,-87.587782,"member"
"E34F1CA4A538A6F5","electric_bike","2022-10-30 08:26:58","2022-10-30 08:34:19","Halsted St & Maxwell St","TA1309000001","Clinton St & Madison St","TA1305000032",41.8648593333333,-87.647197,41.8827519656856,-87.641190290451,"casual"
"AE23D4E8D2207DFA","classic_bike","2022-10-06 11:55:00","2022-10-06 12:03:41","Wells St & Huron St","TA1306000012","Wells St & Hubbard St","TA1307000151",41.894722,-87.634362,41.889906,-87.634266,"casual"
"6BCF72D89A29C1C3","classic_bike","2022-10-05 07:06:09","2022-10-05 07:09:24","Noble St & Milwaukee Ave","13290","Ashland Ave & Division St","13061",41.90068,-87.6626,41.90345,-87.667747,"casual"
"DB8710E556C52585","electric_bike","2022-10-28 17:49:26","2022-10-28 18:03:14","","","","",41.94,-87.66,41.92,-87.67,"member"
"3B1547DF7A33E203","electric_bike","2022-10-26 06:23:59","2022-10-26 06:24:19","Orleans St & Chestnut St (NEXT Apts)","620","Orleans St & Chestnut St (NEXT Apts)","620",41.898109436,-87.637454867,41.898203,-87.637536,"member"
"74A1CA4E00B7AEDC","classic_bike","2022-10-30 15:26:43","2022-10-30 15:47:42","Green St & Randolph St*","chargingstx3","Millennium Park","13008",41.8836016572752,-87.6486267149448,41.8810317,-87.62408432,"casual"
"6E6D79996D62D099","classic_bike","2022-10-13 15:04:48","2022-10-13 15:07:41","McClurg Ct & Erie St","KA1503000041","New St & Illinois St","TA1306000013",41.894503,-87.617854,41.8908470406238,-87.6186168193817,"member"
"FC263E9C77561141","classic_bike","2022-10-01 07:20:40","2022-10-01 08:03:26","Adler Planetarium","13431","Shedd Aquarium","15544",41.866095,-87.607267,41.86722595682,-87.6153553902,"member"
"3D43BBA46088016E","electric_bike","2022-10-09 10:07:56","2022-10-09 10:18:29","Clark St & Newport St","632","N Paulina St & Lincoln Ave","20253.0",41.9444648333333,-87.6547826666667,41.94,-87.67,"member"
"16E3364E44EE683F","classic_bike","2022-10-01 19:26:26","2022-10-01 19:34:58","Federal St & Polk St","SL-008","Indiana Ave & Roosevelt Rd","SL-005",41.87207763285,-87.6295437729,41.867888,-87.623041,"casual"
"4C583DC9E215E177","electric_bike","2022-10-12 18:38:09","2022-10-12 18:45:51","Clinton St & Washington Blvd","WL-012","Ogden Ave & Race Ave","13194",41.8835216666667,-87.6413171666667,41.891795,-87.658751,"casual"
"037CD2F9425FE638","classic_bike","2022-10-21 12:48:51","2022-10-21 13:03:35","Cottage Grove Ave & 71st St","KA1503000003","Stony Island Ave & 75th St","KA1503000019",41.76571903697,-87.604959713,41.7586696704,-87.586882871,"member"
"265C5E4AA907958B","classic_bike","2022-10-29 11:16:30","2022-10-29 12:42:38","Museum of Science and Industry","KA1503000074","Museum of Science and Industry","KA1503000074",41.79172820953,-87.583945009,41.79172820953,-87.583945009,"casual"
"2C9D1A347D3DDF7D","classic_bike","2022-10-23 19:24:08","2022-10-23 19:27:23","Ellis Ave & 60th St","KA1503000014","University Ave & 57th St","KA1503000071",41.78509714636,-87.6010727606,41.791478,-87.599861,"member"
"BADB78516F205E18","classic_bike","2022-10-05 12:52:29","2022-10-05 13:20:58","DuSable Lake Shore Dr & Diversey Pkwy","TA1309000039","DuSable Lake Shore Dr & Diversey Pkwy","TA1309000039",41.932588,-87.636427,41.932588,-87.636427,"member"
"F5ADFD2FE9CD5FC9","electric_bike","2022-10-22 17:53:54","2022-10-22 18:07:13","Dayton St & North Ave","13058","Canal St & Adams St","13011",41.910678148,-87.649447799,41.879255,-87.639904,"casual"
"B6E4A882350C087C","docked_bike","2022-10-14 01:01:38","2022-10-14 01:08:35","Wilton Ave & Belmont Ave","TA1307000134","Sheffield Ave & Fullerton Ave","TA1306000016",41.940232,-87.652944,41.925602,-87.653708,"casual"
"02C0C6BD89FAAB10","classic_bike","2022-10-20 15:23:15","2022-10-20 15:29:55","Stony Island Ave & 71st St","KA1503000045","Stony Island Ave & 75th St","KA1503000019",41.7664929373,-87.5864608775,41.7586696704,-87.586882871,"member"
"4FE7752A5DE3316D","electric_bike","2022-10-06 12:44:59","2022-10-06 12:51:58","Michigan Ave & Lake St","TA1305000011","St. Clair St & Erie St","13016",41.886219025,-87.624351263,41.8943451374243,-87.6227983832359,"casual"
"B7542658D5537F1B","electric_bike","2022-10-14 15:05:58","2022-10-14 15:10:51","State St & Kinzie St","13050","McClurg Ct & Ohio St","TA1306000029",41.887929,-87.6271533333333,41.8925921197097,-87.6172891259193,"casual"
"39AAE058D4469EFF","electric_bike","2022-10-10 20:08:37","2022-10-10 20:22:40","Fairbanks St & Superior St","18003","Sedgwick St & Webster Ave","13191",41.8956218333333,-87.6202913333333,41.922167,-87.638888,"casual"
"565B588654B3CEE4","electric_bike","2022-10-16 22:27:11","2022-10-16 22:33:46","Clinton St & Washington Blvd","WL-012","Cityfront Plaza Dr & Pioneer Ct","13427",41.88331,-87.6412246666667,41.890573,-87.622072,"member"
"3399B2F802CB6279","electric_bike","2022-10-21 14:41:48","2022-10-21 14:46:56","Bissell St & Armitage Ave*","chargingstx1","Clark St & Lincoln Ave","13179",41.9184855,-87.6522241666667,41.915689,-87.6346,"casual"
"834E1E1198B01DD2","classic_bike","2022-10-22 21:47:00","2022-10-22 21:49:35","Honore St & Division St","TA1305000034","Damen Ave & Thomas St (Augusta Blvd)","TA1307000070",41.903119,-87.673935,41.901315,-87.677409,"casual"
"CC7D8AB111323237","electric_bike","2022-10-18 18:28:03","2022-10-18 18:33:15","Dayton St & North Ave","13058","","",41.910685778,-87.649444461,41.91,-87.63,"member"
"84F39300CB63CA61","electric_bike","2022-10-19 18:40:45","2022-10-19 18:48:12","May St & Taylor St","13160","Ashland Ave & 13th St","13354",41.869432926,-87.655464292,41.865234,-87.666507,"member"
"DCE76ABC6D2519B6","electric_bike","2022-10-20 12:37:03","2022-10-20 12:51:04","Canal St & Monroe St","13056","McClurg Ct & Ohio St","TA1306000029",41.8819411666667,-87.639595,41.8925921197097,-87.6172891259193,"casual"
"77150C3D45D60B14","electric_bike","2022-10-09 11:03:33","2022-10-09 11:39:10","","","Humboldt Blvd & Armitage Ave","15651",41.92,-87.65,41.91751339399,-87.7018089555,"member"
"BA0D5F1C354A14D2","electric_bike","2022-10-14 14:20:15","2022-10-14 14:22:55","Wells St & Elm St","KA1504000135","Franklin St & Chicago Ave","13017",41.903393,-87.6344281666667,41.8967469730938,-87.6356676220894,"member"
"0E1AA2C23B156A73","electric_bike","2022-10-14 13:26:26","2022-10-14 13:36:24","","","","",41.79,-87.6,41.8,-87.59,"casual"
"20225065AE47117F","electric_bike","2022-10-31 08:18:33","2022-10-31 08:23:03","","","Desplaines St & Randolph St","15535",41.88,-87.65,41.88461618962,-87.6445705849,"member"
"C5F40B2EE0525109","classic_bike","2022-10-01 17:31:55","2022-10-01 17:52:28","Sheridan Rd & Montrose Ave","TA1307000107","DuSable Lake Shore Dr & Wellington Ave","TA1307000041",41.96167,-87.65464,41.9366884494997,-87.6368290185928,"member"
"C478CA16AFF1EC4B","electric_bike","2022-10-29 16:13:42","2022-10-29 16:21:43","Lincoln Ave & Fullerton Ave","TA1309000058","Halsted St & Clybourn Ave","331",41.9243138333333,-87.6464468333333,41.909668,-87.648128,"member"
"F930A4F629FDCEC7","classic_bike","2022-10-13 10:45:18","2022-10-13 10:48:11","Wentworth Ave & 24th St (Temp)","TA1308000026","Wentworth Ave & Cermak Rd","13075",41.8500836934758,-87.6321405172348,41.8530845574128,-87.6319313049316,"member"
"967CB740E334598B","electric_bike","2022-10-08 18:18:44","2022-10-08 18:30:14","Southport Ave & Wrightwood Ave","TA1307000113","Paulina Ave & North Ave","TA1305000037",41.9288115,-87.6638845,41.9098546521673,-87.6699301600456,"casual"
"2996AFCD9F1BE25C","classic_bike","2022-10-11 05:04:04","2022-10-11 05:34:02","Broadway & Sheridan Rd","13323","Green St & Washington Blvd","13053",41.952833,-87.649993,41.8831813059739,-87.6487246155739,"member"
"5BF53BB1B01EE18A","classic_bike","2022-10-29 13:51:57","2022-10-29 14:16:09","Ritchie Ct & Banks St","KA1504000134","Cityfront Plaza Dr & Pioneer Ct","13427",41.906866,-87.626217,41.890573,-87.622072,"casual"
"AF697C7FC93D5EE2","classic_bike","2022-10-09 17:39:40","2022-10-09 17:52:24","Ashland Ave & 13th St","13354","Morgan Ave & 14th Pl","TA1306000002",41.865234,-87.666507,41.862378,-87.651062,"member"
"6305C2245FD8DDB1","classic_bike","2022-10-24 08:22:16","2022-10-24 08:27:17","Franklin St & Chicago Ave","13017","Orleans St & Merchandise Mart Plaza","TA1305000022",41.8967469730938,-87.6356676220894,41.888243,-87.63639,"member"
"1895B9AC7E0AC604","classic_bike","2022-10-22 10:45:50","2022-10-22 10:49:32","Halsted St & Maxwell St","TA1309000001","Halsted St & Polk St","TA1307000121",41.864883,-87.647071,41.87184,-87.64664,"member"
"4332782E4972944D","classic_bike","2022-10-08 13:50:31","2022-10-08 13:56:03","Wilton Ave & Diversey Pkwy*","chargingstx0","Clark St & Wrightwood Ave","TA1305000014",41.932418,-87.652705,41.929546,-87.643118,"casual"
"702A0664ABE71834","classic_bike","2022-10-14 13:34:12","2022-10-14 13:41:00","Wood St & Milwaukee Ave","13221","Damen Ave & Cortland St","13133",41.907655,-87.672552,41.915983,-87.677335,"member"
"78F026337F1CBEC3","classic_bike","2022-10-08 17:45:31","2022-10-08 18:04:43","Halsted St & Willow St","TA1307000166","Wabash Ave & Grand Ave","TA1307000117",41.913865,-87.648755,41.891466,-87.626761,"casual"
"6B12FCAD8DC34C8B","classic_bike","2022-10-15 18:50:43","2022-10-15 18:55:35","Leavitt St & Division St","658","Leavitt St & Chicago Ave","18058",41.902997,-87.683825,41.895501,-87.682017,"member"
"DB20FF63F04A53AB","classic_bike","2022-10-21 18:33:46","2022-10-21 18:59:49","Michigan Ave & Madison St","13036","California Ave & Milwaukee Ave","13084",41.882134,-87.625125,41.922695,-87.697153,"member"
"012C25617A6BEFF4","electric_bike","2022-10-15 15:08:38","2022-10-15 15:29:12","Wells St & Elm St","KA1504000135","","",41.903277636,-87.634809971,41.92,-87.69,"member"
"5E565AC1D16FBB6D","electric_bike","2022-10-12 06:30:37","2022-10-12 06:38:32","Columbus Dr & Randolph St","13263","LaSalle St & Jackson Blvd","TA1309000004",41.8844608333333,-87.6193738333333,41.878166,-87.631929,"member"
"688DAE3F6D0EFAB2","electric_bike","2022-10-22 21:07:12","2022-10-22 21:23:28","Sangamon St & Lake St","TA1306000015","Honore St & Division St","TA1305000034",41.885936379,-87.651108503,41.903119,-87.673935,"member"
"D8B598C7CEFB24CB","electric_bike","2022-10-10 09:41:05","2022-10-10 09:43:27","Kingsbury St & Kinzie St","KA1503000043","Franklin St & Lake St","TA1307000111",41.8891966666667,-87.6383995,41.885837,-87.6355,"member"
"D79825E77F83A605","electric_bike","2022-10-21 23:42:56","2022-10-21 23:47:09","Central Park Blvd & 5th Ave","16907","Conservatory Dr & Lake St","518",41.875667453,-87.715540051,41.885502,-87.716866,"casual"
"150AA60A9DE4480D","electric_bike","2022-10-09 15:49:59","2022-10-09 16:21:02","MLK Jr Dr & 29th St","TA1307000139","State St & Chicago Ave","21544",41.8420111666667,-87.6169358333333,41.8966172004075,-87.628578543663,"member"
"8433289379E2B6D0","classic_bike","2022-10-18 08:13:03","2022-10-18 08:24:11","Orleans St & Elm St","TA1306000006","Desplaines St & Kinzie St","TA1306000003",41.902924,-87.637715,41.888716036,-87.6444478533,"member"
"0A51FFE3DCAAC985","electric_bike","2022-10-26 16:26:06","2022-10-26 16:30:54","","","Clinton St & Washington Blvd","WL-012",41.89,-87.65,41.88338,-87.64117,"member"
"844C0A00746A99F9","electric_bike","2022-10-02 15:03:19","2022-10-02 15:35:45","Clarendon Ave & Gordon Ter","13379","McClurg Ct & Ohio St","TA1306000029",41.9578116666667,-87.6495818333333,41.8925921197097,-87.6172891259193,"member"
"DEA22F9AC6A62C86","electric_bike","2022-10-15 20:06:50","2022-10-15 20:10:25","Clinton St & Roosevelt Rd","WL-008","Clinton St & Tilden St","13037",41.867146373,-87.641100287,41.875885,-87.640795,"casual"
"A35ABB09E4D56DB1","electric_bike","2022-10-06 16:14:33","2022-10-06 16:42:19","Dearborn St & Monroe St","TA1305000006","Southport Ave & Clybourn Ave","TA1309000030",41.8806388333333,-87.6296631666667,41.920771,-87.663712,"member"
"333E582FD6A49826","classic_bike","2022-10-27 18:50:34","2022-10-27 18:57:21","State St & 33rd St","13216","Rhodes Ave & 32nd St","13215",41.834734,-87.625813,41.836208,-87.613533,"member"
"FE1A48C57AB234FD","classic_bike","2022-10-01 10:28:40","2022-10-01 10:40:28","Ashland Ave & Division St","13061","California Ave & Cortez St","17660",41.90345,-87.667747,41.900363,-87.696704,"member"
"A1B874DC3DA59EFC","electric_bike","2022-10-02 15:28:06","2022-10-02 15:33:24","Columbus Dr & Randolph St","13263","Michigan Ave & Madison St","13036",41.884571195,-87.619450331,41.882134,-87.625125,"member"
"F9D11F5100B1A593","electric_bike","2022-10-23 01:14:31","2022-10-23 01:27:44","","","Montrose Harbor","TA1308000012",41.95,-87.66,41.963982,-87.638181,"casual"
"9153CD6428E36CD0","electric_bike","2022-10-23 16:46:14","2022-10-23 17:16:11","","","","",41.85,-87.61,41.91,-87.64,"casual"
"994092C89FEFE3ED","classic_bike","2022-10-14 13:17:58","2022-10-14 13:40:37","Streeter Dr & Grand Ave","13022","DuSable Lake Shore Dr & Belmont Ave","TA1309000049",41.892278,-87.612043,41.940775,-87.639192,"member"
"83359CF01C2A3556","electric_bike","2022-10-09 10:52:38","2022-10-09 11:00:12","","","","",41.98,-87.71,41.99,-87.72,"casual"
"4BC317D69A20BE89","classic_bike","2022-10-10 16:56:38","2022-10-10 17:55:30","Streeter Dr & Grand Ave","13022","Dearborn St & Monroe St","TA1305000006",41.892278,-87.612043,41.881319815,-87.6295209193,"casual"
"2F560DE0DAA234B8","electric_bike","2022-10-19 16:50:17","2022-10-19 16:58:55","","","Broadway & Sheridan Rd","13323",41.94,-87.67,41.952833,-87.649993,"member"
"E7632AC778F7AC67","electric_bike","2022-10-01 16:37:42","2022-10-01 16:43:53","","","","",41.93,-87.65,41.92,-87.65,"casual"
"13CF9BD98D6E47B8","electric_bike","2022-10-12 20:03:33","2022-10-12 20:17:18","","","Public Rack - Pulaski Rd & 15th St","528",41.86,-87.72,41.86,-87.73,"casual"
"012EC8A680FB77B9","classic_bike","2022-10-21 15:40:02","2022-10-21 15:51:31","Blackstone Ave & Hyde Park Blvd","13398","Harper Ave & 59th St","KA1503000070",41.802562,-87.590368,41.78794281287,-87.5883151702,"member"
"D54932589FBD991D","classic_bike","2022-10-07 13:58:51","2022-10-07 14:01:56","Rockwell St & Eastwood Ave","KA1504000093","Campbell Ave & Montrose Ave","15623",41.96590013976,-87.6936384935,41.96152593287,-87.6911650414,"member"
"62A9714741B01164","electric_bike","2022-10-27 14:50:10","2022-10-27 15:23:07","Shedd Aquarium","15544","Throop St & Taylor St","13139",41.86726439,-87.615437388,41.868968,-87.659141,"casual"
"11572AC4AD250C19","electric_bike","2022-10-10 18:10:06","2022-10-10 18:12:44","Clinton St & Madison St","TA1305000032","Clinton St & Washington Blvd","WL-012",41.882776856,-87.64122808,41.88338,-87.64117,"casual"
"82CDB1EC593965AA","classic_bike","2022-10-05 13:00:55","2022-10-05 13:05:19","Morgan St & Polk St","TA1307000130","Loomis St & Lexington St","13332",41.871737,-87.65103,41.872187,-87.661501,"member"
"E5046214AB24D753","classic_bike","2022-10-31 21:36:41","2022-10-31 21:46:43","Dearborn St & Erie St","13045","Milwaukee Ave & Grand Ave","13033",41.893992,-87.629318,41.891578,-87.648384,"member"
"399A559E5F4244CF","classic_bike","2022-10-21 18:29:21","2022-10-21 18:40:00","Southport Ave & Irving Park Rd","TA1309000043","Southport Ave & Waveland Ave","13235",41.954177,-87.664358,41.94815,-87.66394,"member"
"33F7A5BA0E126883","classic_bike","2022-10-14 16:43:18","2022-10-14 16:54:32","Sangamon St & Lake St","TA1306000015","Wabash Ave & Wacker Pl","TA1307000131",41.8857792524043,-87.6510246098041,41.886875,-87.62603,"member"
"2CF5F5D12AED5929","classic_bike","2022-10-09 14:43:19","2022-10-09 15:03:13","DuSable Lake Shore Dr & North Blvd","LF-005","DuSable Lake Shore Dr & Wellington Ave","TA1307000041",41.911722,-87.626804,41.9366884494997,-87.6368290185928,"casual"
"7D4280FD1268C2C9","classic_bike","2022-10-24 16:46:37","2022-10-24 16:47:23","Burnham Harbor","15545","Burnham Harbor","15545",41.857411787074,-87.6137915253639,41.857411787074,-87.6137915253639,"casual"
"73083214927D8845","electric_bike","2022-10-16 21:25:37","2022-10-16 21:34:32","Kingsbury St & Erie St","13265","Larrabee St & Webster Ave","13193",41.893884778,-87.641911268,41.921822,-87.64414,"casual"
"D033952BDF309A01","electric_bike","2022-10-07 21:50:45","2022-10-07 21:53:26","","","Sheridan Rd & Lawrence Ave","TA1309000041",41.97,-87.65,41.969517,-87.654691,"member"
"6AA612F7C36495A6","electric_bike","2022-10-05 10:02:02","2022-10-05 10:10:39","","","","",41.92,-87.66,41.91,-87.65,"member"
"F13C30BEB7A6863B","electric_bike","2022-10-10 07:18:39","2022-10-10 07:24:43","Columbus Dr & Randolph St","13263","LaSalle St & Jackson Blvd","TA1309000004",41.8844945,-87.6197546666667,41.878166,-87.631929,"member"
"6004E298679A5870","classic_bike","2022-10-08 16:22:00","2022-10-08 16:31:01","Michigan Ave & Jackson Blvd","TA1309000002","Canal St & Monroe St","13056",41.87785,-87.62408,41.88169,-87.63953,"casual"
"591CD5326E91E1F1","electric_bike","2022-10-15 13:52:53","2022-10-15 14:04:12","Campbell Ave & North Ave","13257","Noble St & Milwaukee Ave","13290",41.910495,-87.6895775,41.90068,-87.6626,"member"
"5D0374E355C99BB7","electric_bike","2022-10-10 13:42:05","2022-10-10 13:52:40","Dearborn St & Adams St","TA1305000005","Throop St & Taylor St","13139",41.878345,-87.6295735,41.868968,-87.659141,"member"
"9FE21BB98D5CFDA2","classic_bike","2022-10-06 14:25:36","2022-10-06 14:31:36","Sheffield Ave & Kingsbury St","13154","Walsh Park","18067",41.910522,-87.653106,41.91461,-87.667968,"member"
"E7CFCCBA2635FC47","electric_bike","2022-10-01 08:58:01","2022-10-01 09:18:21","Damen Ave & Wabansia Ave","20.0","Damen Ave & Wabansia Ave","20.0",41.91,-87.68,41.91,-87.68,"casual"
"93507B1EC4BC67E1","classic_bike","2022-10-19 18:55:11","2022-10-19 18:59:55","Wentworth Ave & 33rd St","15445","Shields Ave & 31st St","KA1503000038",41.83452988563,-87.6318229814,41.838464,-87.635406,"casual"
"370B418EC0BCA7FB","classic_bike","2022-10-19 18:13:39","2022-10-19 18:19:13","Wolcott Ave & Polk St","TA1309000064","Western Ave & Fillmore St","644",41.871262,-87.673688,41.868563,-87.686234,"member"
"785C2B44258C12D5","electric_bike","2022-10-23 00:02:45","2022-10-23 00:07:24","Sedgwick St & Schiller St","TA1307000143","","",41.9075368333333,-87.6384343333333,41.91,-87.63,"member"
"4F42043AA48B6C99","classic_bike","2022-10-12 17:38:57","2022-10-12 17:56:56","Broadway & Ridge Ave","15578","Ravenswood Ave & Berteau Ave","TA1309000018",41.9840446107,-87.6602738295,41.957921,-87.673567,"member"
"53982748AE364637","classic_bike","2022-10-13 13:49:16","2022-10-13 14:02:29","Franklin St & Jackson Blvd","TA1305000025","Racine Ave & Randolph St","13155",41.8777079559,-87.6353211408,41.884069,-87.656853,"casual"
"C9A8DD4A23AF682B","electric_bike","2022-10-12 08:50:30","2022-10-12 08:55:14","Winchester (Ravenswood) Ave & Balmoral Ave","KA1504000147","Damen Ave & Leland Ave","TA1307000158",41.9797283333333,-87.6776465,41.967094,-87.679028,"member"
"BB74563C9D7E3207","classic_bike","2022-10-11 08:22:58","2022-10-11 08:27:37","Franklin St & Illinois St","RN-","Rush St & Superior St","15530",41.8910233102519,-87.6354798674583,41.89576474564,-87.6259080327,"member"
"B904E60533863E0C","classic_bike","2022-10-06 20:06:50","2022-10-06 20:10:51","Ellis Ave & 60th St","KA1503000014","University Ave & 57th St","KA1503000071",41.78509714636,-87.6010727606,41.791478,-87.599861,"casual"
"85A9E54F48DE56A8","classic_bike","2022-10-18 11:46:30","2022-10-18 11:56:13","Orleans St & Merchandise Mart Plaza","TA1305000022","Dayton St & North Ave","13058",41.888243,-87.63639,41.9105780349,-87.6494219288,"member"
"960C31573168CC5F","classic_bike","2022-10-23 11:25:23","2022-10-23 11:40:28","Clark St & Armitage Ave","13146","Lakeview Ave & Fullerton Pkwy","TA1309000019",41.918306,-87.636282,41.925858,-87.638973,"casual"
"FFBD56D54308E225","electric_bike","2022-10-29 17:16:22","2022-10-29 17:21:19","Clark St & Armitage Ave","13146","","",41.918375731,-87.636260152,41.93,-87.64,"casual"
"5686C5E30C67017F","electric_bike","2022-10-16 11:36:01","2022-10-16 11:37:47","","","Western Ave & Winnebago Ave","13068",41.92,-87.69,41.91552,-87.687022,"member"
"3A2F1AE0DD6F98B8","classic_bike","2022-10-15 13:28:14","2022-10-15 13:31:30","Sheridan Rd & Lawrence Ave","TA1309000041","Clarendon Ave & Leland Ave","TA1307000119",41.969517,-87.654691,41.967968,-87.650001,"member"
"07014F5AC33BDFA6","electric_bike","2022-10-17 18:47:41","2022-10-17 18:59:53","Clark St & Newport St","632","Southport Ave & Clybourn Ave","TA1309000030",41.944554448,-87.654690981,41.920771,-87.663712,"casual"
"6AEDF2A34675793E","electric_bike","2022-10-01 12:22:09","2022-10-01 12:28:04","","","","",41.97,-87.67,41.97,-87.69,"member"
"CE2E1961B6BB27BF","classic_bike","2022-10-12 23:23:27","2022-10-12 23:25:45","Lincoln Ave & Belle Plaine Ave","TA1309000026","Oakley Ave & Irving Park Rd","KA1504000158",41.9560035507855,-87.6801614463329,41.95434085219,-87.6860796243,"member"
"0484BC1200FED903","electric_bike","2022-10-06 23:05:01","2022-10-06 23:16:20","LaSalle St & Washington St","13006","Halsted St & Clybourn Ave","331",41.8825468333333,-87.6326973333333,41.909668,-87.648128,"member"
"0D9BCBFE6DA69D81","electric_bike","2022-10-13 10:42:39","2022-10-13 11:03:47","Yates Blvd & 75th St","KA1503000024","Yates Blvd & 75th St","KA1503000024",41.758711457,-87.56642127,41.758768,-87.56644,"member"
"693443D8B5C5B2B5","classic_bike","2022-10-25 18:51:05","2022-10-25 18:54:36","Wells St & Hubbard St","TA1307000151","Rush St & Hubbard St","KA1503000044",41.889906,-87.634266,41.890173,-87.626185,"member"
"4F0E8E7448908CDB","electric_bike","2022-10-12 14:54:51","2022-10-12 15:00:55","","","","",41.79,-87.6,41.79,-87.6,"casual"
"47C8E698417CC5AE","electric_bike","2022-10-22 09:17:31","2022-10-22 09:33:29","May St & Taylor St","13160","","",41.869363666,-87.655472755,41.89,-87.61,"member"
"90CD460A5590E501","electric_bike","2022-10-13 10:57:42","2022-10-13 11:02:17","","","","",41.79,-87.6,41.79,-87.6,"member"
"B650C7F6BB9E60F4","classic_bike","2022-10-10 22:51:41","2022-10-10 22:57:58","May St & Taylor St","13160","Throop St & Taylor St","13139",41.8694821,-87.6554864,41.868968,-87.659141,"member"
"ED7AE5B03571950B","classic_bike","2022-10-08 15:02:05","2022-10-08 15:13:01","Ashland Ave & Grand Ave","13434","Honore St & Division St","TA1305000034",41.891072,-87.666611,41.903119,-87.673935,"member"
"96D9BEEF8D125647","electric_bike","2022-10-09 17:25:21","2022-10-09 17:31:26","Wabash Ave & Roosevelt Rd","TA1305000002","Clinton St & Tilden St","13037",41.8672181666667,-87.6260068333333,41.875885,-87.640795,"casual"
"2798C94ED3E8C068","electric_bike","2022-10-22 11:06:05","2022-10-22 11:28:32","Lincoln Ave & Sunnyside Ave","TA1307000156","Halsted St & Willow St","TA1307000166",41.963055611,-87.68484962,41.913865,-87.648755,"casual"
"663F4920D079C40B","electric_bike","2022-10-28 15:59:14","2022-10-28 16:16:44","Kedzie Ave & 48th Pl","382","","",41.8,-87.7,41.78,-87.71,"casual"
"FAF6C46344717F05","electric_bike","2022-10-13 12:47:03","2022-10-13 12:56:37","Wells St & Concord Ln","TA1308000050","Michigan Ave & Oak St","13042",41.912142515,-87.634703517,41.90096039,-87.62377664,"member"
"EFD6B6A2F53C1A55","classic_bike","2022-10-01 18:44:24","2022-10-01 18:54:52","Larrabee St & Webster Ave","13193","Larrabee St & North Ave","TA1306000008",41.921822,-87.64414,41.91021,-87.6435,"casual"
"3F9F3A080FAD7FE9","classic_bike","2022-10-05 17:54:22","2022-10-05 18:08:01","Clark St & Ida B Wells Dr","TA1305000009","Indiana Ave & Roosevelt Rd","SL-005",41.8759326655,-87.6305845355,41.867888,-87.623041,"member"
"720FB36381952BB0","classic_bike","2022-10-04 16:06:32","2022-10-04 16:17:57","Clark St & Bryn Mawr Ave","KA1504000151","Marine Dr & Ainslie St","KA1504000171",41.983593,-87.669154,41.9716,-87.650154,"member"
"5CEF39257688808C","electric_bike","2022-10-27 17:48:12","2022-10-27 18:03:45","","","Clinton St & Jackson Blvd","638",41.88,-87.68,41.8783166118307,-87.6409810781479,"member"
"0DF847F2C22A2C52","electric_bike","2022-10-27 14:04:05","2022-10-27 14:43:26","","","","",41.89,-87.62,41.88,-87.63,"casual"
"F3D9D671D4F518C8","electric_bike","2022-10-30 12:29:15","2022-10-30 12:42:29","Milwaukee Ave & Grand Ave","13033","Rush St & Hubbard St","KA1503000044",41.891403675,-87.648413658,41.890173,-87.626185,"casual"
"C0F4F9ACE85FA17F","electric_bike","2022-10-28 17:29:10","2022-10-28 17:37:16","McClurg Ct & Erie St","KA1503000041","Kingsbury St & Erie St","13265",41.8944348333333,-87.6180978333333,41.8938080562436,-87.6416972279549,"member"
"E72AD2F7D842A258","electric_bike","2022-10-03 17:21:16","2022-10-03 17:28:33","Sangamon St & Washington Blvd","13409","Kingsbury St & Kinzie St","KA1503000043",41.8829945,-87.6510093333333,41.88917683258,-87.6385057718,"member"
"E139B9FBA392F157","electric_bike","2022-10-21 23:29:47","2022-10-21 23:49:09","","","Leavitt St & Belmont Ave","KA17018068",41.88,-87.66,41.939354,-87.683282,"member"
"BFEAD51768212C6B","electric_bike","2022-10-06 21:57:43","2022-10-06 22:25:35","Ashland Ave & Division St","13061","","",41.9032055,-87.6678588333333,41.95,-87.71,"casual"
"49347917B0C0DAD1","electric_bike","2022-10-22 17:35:22","2022-10-22 17:56:34","","","State St & Randolph St","TA1305000029",41.93,-87.66,41.8846210725794,-87.6278342306614,"member"
"0E5DABB18FE54349","classic_bike","2022-10-11 11:46:15","2022-10-11 11:49:46","University Ave & 57th St","KA1503000071","Ellis Ave & 53rd St","KA1503000052",41.791478,-87.599861,41.79933626261,-87.6009581145,"member"
"C936E69A478CD930","electric_bike","2022-10-15 02:18:16","2022-10-15 02:24:14","Wabash Ave & Grand Ave","TA1307000117","Franklin St & Chicago Ave","13017",41.8915116666667,-87.6266053333333,41.8967469730938,-87.6356676220894,"member"
"DFF4CF51B844FFE9","classic_bike","2022-10-21 08:37:44","2022-10-21 08:48:09","Shore Dr & 55th St","TA1308000009","Ellis Ave & 60th St","KA1503000014",41.795212,-87.580715,41.78509714636,-87.6010727606,"member"
"6BE0E1A40CEF6276","electric_bike","2022-10-20 08:20:09","2022-10-20 08:21:34","Public Rack - Woodlawn Ave & 63rd St N","951","Dorchester Ave & 63rd St","KA1503000046",41.78,-87.6,41.7804056457,-87.5914159893,"member"
"206A231363477B95","classic_bike","2022-10-18 15:36:19","2022-10-18 15:40:18","Ellis Ave & 60th St","KA1503000014","University Ave & 57th St","KA1503000071",41.78509714636,-87.6010727606,41.791478,-87.599861,"member"
"5E316A89777F0C22","classic_bike","2022-10-14 11:09:34","2022-10-14 11:21:20","Dorchester Ave & 49th St","KA1503000069","Ellis Ave & 55th St","KA1504000076",41.805772,-87.592464,41.79430062054,-87.6014497734,"member"
"11E8C3EF0D2308E6","electric_bike","2022-10-22 22:10:17","2022-10-22 22:15:11","","","","",41.98,-87.66,41.97,-87.65,"member"
"B3D9880153670E47","docked_bike","2022-10-14 14:01:05","2022-10-14 14:24:49","Lakeview Ave & Fullerton Pkwy","TA1309000019","Cannon Dr & Fullerton Ave","13124",41.925858,-87.638973,41.926756,-87.634429,"casual"
"981AEF4D5EAC11E0","electric_bike","2022-10-14 12:56:38","2022-10-14 13:00:08","","","","",41.92,-87.72,41.92,-87.71,"casual"
"3787FB1B8481E72B","electric_bike","2022-10-22 07:36:47","2022-10-22 07:44:06","MLK Jr Dr & 29th St","TA1307000139","State St & 35th St","TA1307000129",41.8419811666667,-87.616853,41.8310363140161,-87.6267975568771,"member"
"D59E8EBCCE351E06","electric_bike","2022-10-09 14:39:45","2022-10-09 14:55:04","Western Ave & Grace St","431","Broadway & Cornelia Ave","13278",41.95,-87.69,41.945529,-87.646439,"member"
"4E8DD0D5F6D528E8","electric_bike","2022-10-14 13:25:26","2022-10-14 13:30:23","California Ave & Milwaukee Ave","13084","","",41.922584,-87.6971058333333,41.93,-87.7,"casual"
"E4DE4B058891E07B","classic_bike","2022-10-21 19:43:38","2022-10-21 19:54:46","Western Ave & Division St","13241","Damen Ave & Thomas St (Augusta Blvd)","TA1307000070",41.902893,-87.687275,41.901315,-87.677409,"member"
"4C859A49CD6DE09B","classic_bike","2022-10-28 01:22:37","2022-10-28 01:46:11","Sheffield Ave & Fullerton Ave","TA1306000016","Loomis St & Lexington St","13332",41.9256018819,-87.6537080423,41.872187,-87.661501,"member"
"121A6DAF648EBD0B","electric_bike","2022-10-03 07:48:45","2022-10-03 07:55:52","900 W Harrison St","13028","Hermitage Ave & Polk St","13080",41.874791,-87.6497538333333,41.871514,-87.669886,"member"
"A3C83F2CE24C6E75","classic_bike","2022-10-04 14:45:07","2022-10-04 14:52:33","Michigan Ave & Lake St","TA1305000011","LaSalle St & Washington St","13006",41.886024,-87.624117,41.882664,-87.63253,"member"
"DEB992FB57D874C0","classic_bike","2022-10-11 07:33:24","2022-10-11 07:42:36","Broadway & Cornelia Ave","13278","Wilton Ave & Diversey Pkwy","TA1306000014",41.945529,-87.646439,41.932418,-87.652705,"member"
"FFB64A9C01F1F495","docked_bike","2022-10-16 14:30:11","2022-10-16 15:11:57","Broadway & Belmont Ave","13277","Clark St & Lincoln Ave","13179",41.940106,-87.645451,41.915689,-87.6346,"casual"
"065D87BD02730676","electric_bike","2022-10-05 09:54:43","2022-10-05 10:07:55","St. Clair St & Erie St","13016","St. Clair St & Erie St","13016",41.894486666,-87.623179317,41.8943451374243,-87.6227983832359,"member"
"EED98963B9A68EF7","electric_bike","2022-10-06 09:31:15","2022-10-06 09:34:42","Columbus Dr & Randolph St","13263","","",41.8845258333333,-87.6196536666667,41.88,-87.63,"member"
"BB8C01F6C326693C","electric_bike","2022-10-27 07:08:26","2022-10-27 07:22:56","","","McClurg Ct & Ohio St","TA1306000029",41.93,-87.64,41.8925921197097,-87.6172891259193,"member"
"1A3A4883A9ACE29F","electric_bike","2022-10-31 15:15:15","2022-10-31 15:23:42","Sheffield Ave & Fullerton Ave","TA1306000016","W Oakdale Ave & N Broadway","20252.0",41.925509214,-87.653787732,41.94,-87.64,"casual"
"D4988D77F1516EE5","electric_bike","2022-10-10 18:17:13","2022-10-10 18:30:13","Clarendon Ave & Junior Ter","13389","","",41.9610485,-87.649379,41.96,-87.68,"member"
"A8E9261F050C3306","classic_bike","2022-10-07 16:19:59","2022-10-07 16:23:43","University Ave & 57th St","KA1503000071","Ellis Ave & 60th St","KA1503000014",41.791478,-87.599861,41.78509714636,-87.6010727606,"member"
"C5BD52849B4399A3","electric_bike","2022-10-10 08:00:20","2022-10-10 08:07:54","","","Stetson Ave & South Water St","TA1308000029",41.9,-87.63,41.886835,-87.62232,"member"
"1D56AB8E8109F468","electric_bike","2022-10-13 18:15:04","2022-10-13 18:24:18","Canal St & Adams St","13011","Morgan St & 18th St","13163",41.879257798,-87.640114307,41.858086,-87.651073,"member"
"1A1F9155524BBFF3","classic_bike","2022-10-19 17:40:58","2022-10-19 19:48:12","Broadway & Granville Ave","15571","South Shore Dr & 67th St","KA1503000029",41.9947796884,-87.6602845349,41.773643,-87.567514,"casual"
"852CBA309A1494E7","electric_bike","2022-10-10 19:10:44","2022-10-10 19:22:27","Clinton St & Polk St","15542","Michigan Ave & Ida B Wells Dr","TA1305000010",41.871409416,-87.64098084,41.876243,-87.624426,"casual"
"DE7E92D9737450A6","electric_bike","2022-10-13 20:25:59","2022-10-13 20:31:38","Aberdeen St & Jackson Blvd","13157","Green St & Madison St","TA1307000120",41.877776504,-87.654815316,41.881892,-87.648789,"member"
"AE4658EC6DCC90FA","classic_bike","2022-10-21 15:54:49","2022-10-21 17:04:34","DuSable Lake Shore Dr & Belmont Ave","TA1309000049","Halsted St & Roscoe St","TA1309000025",41.940775,-87.639192,41.94367,-87.64895,"casual"
"51EE89627FEBFA5D","electric_bike","2022-10-22 13:12:33","2022-10-22 13:21:59","Fairbanks Ct & Grand Ave","TA1305000003","Green St & Madison St","TA1307000120",41.891831398,-87.620669007,41.881892,-87.648789,"member"
"033565EC1D6A22E3","electric_bike","2022-10-31 10:55:37","2022-10-31 11:00:59","Washtenaw Ave & Polk St","420","","",41.87,-87.69,41.87,-87.68,"member"
"C002161555577EBD","classic_bike","2022-10-10 11:24:51","2022-10-10 11:31:33","Shore Dr & 55th St","TA1308000009","University Ave & 57th St","KA1503000071",41.795212,-87.580715,41.791478,-87.599861,"member"
"1A8D648012A1C74D","electric_bike","2022-10-24 19:03:23","2022-10-24 19:06:49","Wentworth Ave & Cermak Rd","13075","Clinton St & 18th St","TA1307000044",41.8531638333333,-87.6318666666667,41.85795,-87.640826,"casual"
"0160F2CDE8807BCE","electric_bike","2022-10-03 15:59:10","2022-10-03 16:06:47","","","Canal St & Jackson Blvd","13138",41.86,-87.64,41.877245,-87.639366,"casual"
"BCF546F1F4E7E396","classic_bike","2022-10-19 17:50:02","2022-10-19 17:56:52","Montrose Harbor","TA1308000012","Clarendon Ave & Gordon Ter","13379",41.963982,-87.638181,41.9578665241517,-87.6495051383972,"member"
"319600D0D8E575DD","classic_bike","2022-10-21 07:30:01","2022-10-21 07:39:47","Blackstone Ave & Hyde Park Blvd","13398","Ellis Ave & 55th St","KA1504000076",41.802562,-87.590368,41.79430062054,-87.6014497734,"member"
"5FBE7F060CB5C5CC","classic_bike","2022-10-21 12:26:00","2022-10-21 12:42:15","Clark St & Armitage Ave","13146","Columbus Dr & Randolph St","13263",41.918306,-87.636282,41.884728,-87.619521,"member"
"7F2E3B75073F59F0","classic_bike","2022-10-09 06:35:48","2022-10-09 06:47:08","Broadway & Barry Ave","13137","Wells St & Concord Ln","TA1308000050",41.9375823160063,-87.6440978050232,41.912133,-87.634656,"member"
"F558A3DF107579F6","electric_bike","2022-10-19 17:35:48","2022-10-19 17:41:22","Western Ave & Leland Ave","TA1307000140","","",41.966454268,-87.688676476,41.97,-87.67,"member"
"7F95ADCBD33D7339","classic_bike","2022-10-07 16:44:47","2022-10-07 16:48:12","Wabash Ave & Roosevelt Rd","TA1305000002","Michigan Ave & 8th St","623",41.867227,-87.625961,41.872773,-87.623981,"member"
"F5960D8F63F2D7A9","classic_bike","2022-10-05 11:31:20","2022-10-05 11:54:07","Leavitt St & North Ave","TA1308000005","Canal St & Jackson Blvd","13138",41.910509366664,-87.6823890209198,41.877245,-87.639366,"member"
"6025FBE909E09E0F","classic_bike","2022-10-07 06:46:25","2022-10-07 06:54:03","Harper Ave & 59th St","KA1503000070","Blackstone Ave & Hyde Park Blvd","13398",41.78794281287,-87.5883151702,41.802562,-87.590368,"member"
"F6918E91610D9B57","classic_bike","2022-10-26 09:04:16","2022-10-26 09:20:38","Ashland Ave & Division St","13061","Wabash Ave & Grand Ave","TA1307000117",41.90345,-87.667747,41.891466,-87.626761,"member"
"4EA0178D47CF7C01","electric_bike","2022-10-10 17:28:27","2022-10-10 17:55:59","","","DuSable Lake Shore Dr & Belmont Ave","TA1309000049",41.95,-87.64,41.940775,-87.639192,"member"
"88F73B43E71D46A8","electric_bike","2022-10-02 12:14:04","2022-10-02 13:32:35","Michigan Ave & Oak St","13042","Streeter Dr & Grand Ave","13022",41.901013,-87.6235771666667,41.892278,-87.612043,"casual"
"EA5C579E6B4E0E14","electric_bike","2022-10-02 01:21:49","2022-10-02 01:30:34","Wells St & Hubbard St","TA1307000151","Eckhart Park","13289",41.8901398333333,-87.634084,41.89637337,-87.66098386,"casual"
"2D5B64D76003C853","classic_bike","2022-10-06 13:54:08","2022-10-06 14:03:07","Michigan Ave & Pearson St","13034","Kingsbury St & Kinzie St","KA1503000043",41.89766,-87.62351,41.88917683258,-87.6385057718,"member"
"8F74EA4DF6BEC24B","classic_bike","2022-10-19 08:11:07","2022-10-19 08:41:34","Pine Grove Ave & Waveland Ave","TA1307000150","Franklin St & Illinois St","RN-",41.9494727408833,-87.6464527845383,41.8910233102519,-87.6354798674583,"member"
"DBF60658A0A1BB9C","electric_bike","2022-10-10 11:46:13","2022-10-10 12:36:05","","","Stetson Ave & South Water St","TA1308000029",41.9,-87.63,41.886835,-87.62232,"member"
"6B8DD1A935CF8C4B","classic_bike","2022-10-05 16:27:28","2022-10-05 16:47:46","Sheffield Ave & Kingsbury St","13154","LaSalle St & Jackson Blvd","TA1309000004",41.910522,-87.653106,41.878166,-87.631929,"member"
"35F3C5A944457201","electric_bike","2022-10-15 03:57:49","2022-10-15 04:06:21","Broadway & Barry Ave","13137","Sheridan Rd & Irving Park Rd","13063",41.9378018333333,-87.6441845,41.954245,-87.654406,"member"
"6D6F777A5864EF40","classic_bike","2022-10-14 06:57:02","2022-10-14 07:01:44","Halsted St & Wrightwood Ave","TA1309000061","Broadway & Barry Ave","13137",41.929143,-87.649077,41.9375823160063,-87.6440978050232,"member"
"1AF295F27B733CE5","electric_bike","2022-10-20 08:20:19","2022-10-20 08:34:02","Ritchie Ct & Banks St","KA1504000134","N Carpenter St & W Lake St","20251.0",41.9069233333333,-87.6261325,41.89,-87.65,"member"
"C12CC72BD157D078","docked_bike","2022-10-10 12:59:20","2022-10-10 13:07:50","Peoria St & Jackson Blvd","13158","Loomis St & Lexington St","13332",41.877642,-87.649618,41.872187,-87.661501,"casual"
"4C9802478D34D779","electric_bike","2022-10-22 09:28:58","2022-10-22 09:50:50","Pine Grove Ave & Irving Park Rd","TA1308000022","","",41.9543961666667,-87.6480486666667,41.96,-87.65,"casual"
"B8C86218B73A80EB","electric_bike","2022-10-04 10:27:59","2022-10-04 10:42:46","Wabash Ave & Roosevelt Rd","TA1305000002","Racine Ave & Congress Pkwy","TA1306000025",41.867089033,-87.625992775,41.87464,-87.65703,"casual"
"F0C63FF0628CC3EF","electric_bike","2022-10-30 15:02:05","2022-10-30 15:11:31","Burling St & Diversey Pkwy","TA1309000036","Ashland Ave & Grace St","13319",41.933086991,-87.647800803,41.950687,-87.6687,"member"
"171AD327036DEA2D","classic_bike","2022-10-14 09:49:20","2022-10-14 10:05:57","Wells St & Polk St","SL-011","900 W Harrison St","13028",41.8727315422631,-87.6335164904594,41.874754,-87.649807,"member"
"E43ED5E9F3F4DAA9","electric_bike","2022-10-05 10:55:25","2022-10-05 11:01:08","","","","",41.93,-87.65,41.92,-87.64,"member"
"6F3BFA8F4524DFBF","electric_bike","2022-10-27 16:30:20","2022-10-27 16:33:00","State St & Kinzie St","13050","New St & Illinois St","TA1306000013",41.889281154,-87.627204657,41.8908470406238,-87.6186168193817,"member"
"44F85094AB5D4B59","electric_bike","2022-10-26 23:29:41","2022-10-26 23:57:48","Western Ave & Walton St","KA1504000103","Clark St & Leland Ave","TA1309000014",41.898400426,-87.686617374,41.9670878391842,-87.667290866375,"casual"
"BD620828447C033E","classic_bike","2022-10-16 01:26:58","2022-10-16 01:33:22","State St & 19th St","SL-013","Michigan Ave & 14th St","TA1307000124",41.856594,-87.627542,41.864059,-87.623727,"member"
"31057A132AF52782","classic_bike","2022-10-22 20:52:36","2022-10-22 21:30:33","Michigan Ave & Washington St","13001","Fort Dearborn Dr & 31st St","TA1307000048",41.8839840647265,-87.6246839761734,41.838556,-87.608218,"casual"
"8A97EF28EB2BF72B","electric_bike","2022-10-29 00:30:30","2022-10-29 00:33:39","Orleans St & Hubbard St","636","Clinton St & Lake St","13021",41.8896868333333,-87.6367958333333,41.885637,-87.641823,"member"
"17BB96C89556AFBB","electric_bike","2022-10-13 16:34:38","2022-10-13 17:22:45","","","","",41.99,-87.67,41.9,-87.66,"member"
"C0A68F0C83557A9C","electric_bike","2022-10-21 16:16:14","2022-10-21 16:37:05","","","","",41.93,-87.64,41.89,-87.63,"casual"
"C3B983F0C2A8DD23","classic_bike","2022-10-27 17:35:34","2022-10-27 17:46:18","Wood St & Chicago Ave","637","Ashland Ave & Lake St","13073",41.895634,-87.672069,41.88592,-87.66717,"casual"
"08C268DE584D507C","electric_bike","2022-10-26 08:01:52","2022-10-26 08:09:01","","","","",41.9,-87.67,41.91,-87.66,"member"
"C97B760C5E6D5D5C","classic_bike","2022-10-13 16:55:42","2022-10-13 17:04:37","Wabash Ave & Wacker Pl","TA1307000131","Indiana Ave & Roosevelt Rd","SL-005",41.886875,-87.62603,41.867888,-87.623041,"casual"
"FE0DE6B4B0414AAB","docked_bike","2022-10-07 19:09:31","2022-10-07 19:29:59","Racine Ave & Belmont Ave","TA1308000019","Clark St & Bryn Mawr Ave","KA1504000151",41.939743,-87.658865,41.983593,-87.669154,"casual"
"89D1F761E205D644","classic_bike","2022-10-23 01:25:36","2022-10-23 01:43:46","Dearborn Pkwy & Delaware Pl","TA1307000128","Clark St & Drummond Pl","TA1307000142",41.898969,-87.629912,41.931248,-87.644336,"member"
"9B205D681E8AFB9D","electric_bike","2022-10-21 20:10:58","2022-10-21 20:31:23","","","Public Rack - Kostner Ave & Armitage Ave","866",41.93,-87.8,41.92,-87.74,"member"
"613FEEDB18B28FC7","classic_bike","2022-10-13 17:13:41","2022-10-13 17:32:13","Canal St & Jackson Blvd","13138","Clybourn Ave & Division St","TA1307000115",41.877245,-87.639366,41.904613,-87.640552,"member"
"47E50BB4210BFFEE","electric_bike","2022-10-01 00:02:20","2022-10-01 00:19:12","","","Marine Dr & Ainslie St","KA1504000171",41.98,-87.67,41.9716,-87.650154,"casual"
"674594EA6647337D","electric_bike","2022-10-25 19:00:45","2022-10-25 19:12:09","Aberdeen St & Randolph St","18062","Wood St & Milwaukee Ave","13221",41.88416326,-87.654277802,41.907655,-87.672552,"member"
"302E600A091C6243","classic_bike","2022-10-26 15:22:59","2022-10-26 15:39:51","McClurg Ct & Erie St","KA1503000041","Dearborn St & Monroe St","TA1305000006",41.894503,-87.617854,41.881319815,-87.6295209193,"member"
"4A7BB67C58F9A436","electric_bike","2022-10-10 12:42:50","2022-10-10 12:45:07","Clark St & Bryn Mawr Ave","KA1504000151","Broadway & Ridge Ave","15578",41.9835185,-87.6691861666667,41.9840446107,-87.6602738295,"casual"
"2E99B0DEEA6D3578","electric_bike","2022-10-10 19:12:31","2022-10-10 19:21:39","Canal St & Taylor St","15550","Loomis St & Lexington St","13332",41.8701705,-87.6394845,41.872187,-87.661501,"member"
"6333A24A8DD9B275","classic_bike","2022-10-14 13:20:19","2022-10-14 13:24:20","Franklin St & Lake St","TA1307000111","Kingsbury St & Kinzie St","KA1503000043",41.885837,-87.6355,41.88917683258,-87.6385057718,"member"
"2F01FD5FC3A5997F","electric_bike","2022-10-10 17:10:26","2022-10-10 17:23:50","","","Larrabee St & Armitage Ave","TA1309000006",41.89,-87.64,41.918084,-87.643749,"member"
"7D4BF19696DEE4F0","classic_bike","2022-10-12 16:52:52","2022-10-12 17:58:14","LaSalle St & Illinois St","13430","LaSalle St & Illinois St","13430",41.890762,-87.631697,41.890762,-87.631697,"casual"
"B7C63771E95CFF6A","electric_bike","2022-10-21 16:10:46","2022-10-21 16:15:00","Larrabee St & Webster Ave","13193","Larrabee St & North Ave","TA1306000008",41.9217995,-87.6440138333333,41.91021,-87.6435,"casual"
"16A1000799C9CE14","classic_bike","2022-10-30 14:47:00","2022-10-30 14:49:07","DuSable Lake Shore Dr & Monroe St","13300","DuSable Lake Shore Dr & Monroe St","13300",41.880958,-87.616743,41.880958,-87.616743,"casual"
"FB002FA569387279","electric_bike","2022-10-26 08:23:28","2022-10-26 08:30:39","Sheffield Ave & Wellington Ave","TA1307000052","Sheffield Ave & Waveland Ave","TA1307000126",41.9363328333333,-87.6524968333333,41.949399,-87.654529,"casual"
"DE8E7E6062EA167F","electric_bike","2022-10-06 13:01:15","2022-10-06 13:40:43","DuSable Lake Shore Dr & Monroe St","13300","DuSable Lake Shore Dr & Monroe St","13300",41.8811731666667,-87.616737,41.880958,-87.616743,"casual"
"499286A6196C8BC5","electric_bike","2022-10-09 15:01:06","2022-10-09 15:21:44","Wood St & Milwaukee Ave","13221","","",41.9075505,-87.6723731666667,41.91,-87.65,"member"
"D7649390E4D368C3","electric_bike","2022-10-09 11:52:49","2022-10-09 12:06:53","","","","",41.92,-87.64,41.91,-87.67,"casual"
"732B71D8CFB01008","classic_bike","2022-10-26 17:28:54","2022-10-26 17:38:37","McClurg Ct & Erie St","KA1503000041","Dearborn Pkwy & Delaware Pl","TA1307000128",41.894503,-87.617854,41.898969,-87.629912,"member"
"C4ABFB1C3B7F9A0C","electric_bike","2022-10-31 16:02:54","2022-10-31 16:16:58","Damen Ave & Wabansia Ave","20.0","","",41.91,-87.68,41.92,-87.67,"casual"
"B1402C2ABAD97604","electric_bike","2022-10-23 12:48:13","2022-10-23 12:56:36","Campbell Ave & Irving Park Rd","439","Ravenswood Ave & Berteau Ave","TA1309000018",41.95,-87.69,41.957921,-87.673567,"casual"
"4DB11659CC9E3C2F","classic_bike","2022-10-11 08:46:02","2022-10-11 08:53:44","Michigan Ave & 8th St","623","State St & Randolph St","TA1305000029",41.872773,-87.623981,41.8846210725794,-87.6278342306614,"member"
"42AA2A973E9948AC","electric_bike","2022-10-11 08:14:59","2022-10-11 08:17:20","Glenwood Ave & Morse Ave","KA1504000175","","",42.007989,-87.6654771666667,42.01,-87.67,"casual"
"49DB67C9989E4A4E","electric_bike","2022-10-30 08:16:33","2022-10-30 08:18:42","","","","",41.86,-87.65,41.87,-87.65,"member"
"1DA278351F567A4A","electric_bike","2022-10-16 16:45:40","2022-10-16 17:00:28","Streeter Dr & Grand Ave","13022","DuSable Lake Shore Dr & Diversey Pkwy","TA1309000039",41.8922663333333,-87.6122451666667,41.932588,-87.636427,"casual"
"B41BA4A2480515F5","classic_bike","2022-10-07 15:01:03","2022-10-07 15:09:59","University Ave & 57th St","KA1503000071","University Ave & 57th St","KA1503000071",41.791478,-87.599861,41.791478,-87.599861,"member"
"A1A1D6C602142047","electric_bike","2022-10-08 17:00:28","2022-10-08 17:09:01","Halsted St & Polk St","TA1307000121","Halsted St & Polk St","TA1307000121",41.8717928333333,-87.6466053333333,41.87184,-87.64664,"member"
"0F73BCA9B2A8B199","electric_bike","2022-10-06 08:58:31","2022-10-06 09:10:18","Sheffield Ave & Willow St","TA1306000032","Wells St & Hubbard St","TA1307000151",41.913802028,-87.652855396,41.889906,-87.634266,"member"
"355DEC6FDA7D8868","electric_bike","2022-10-30 13:43:11","2022-10-30 13:51:44","DuSable Lake Shore Dr & North Blvd","LF-005","DuSable Lake Shore Dr & Wellington Ave","TA1307000041",41.9117136666667,-87.6268226666667,41.9366884494997,-87.6368290185928,"member"
"36A895A229CEE2AB","electric_bike","2022-10-29 09:26:03","2022-10-29 09:26:23","Broadway & Wilson Ave","13074","Broadway & Wilson Ave","13074",41.9651898333333,-87.6583123333333,41.965221,-87.658139,"member"
"3E1C50D00BB05C6C","electric_bike","2022-10-24 15:30:56","2022-10-24 15:34:31","LaSalle St & Jackson Blvd","TA1309000004","Michigan Ave & Madison St","13036",41.878204823,-87.631932735,41.882134,-87.625125,"member"
"644A1F4F3834CF0A","classic_bike","2022-10-04 07:12:42","2022-10-04 07:21:39","Wells St & Walton St","TA1306000011","Canal St & Monroe St","13056",41.89993001,-87.63443007,41.88169,-87.63953,"casual"
"9F4807F93F3EB6FF","electric_bike","2022-10-21 16:09:45","2022-10-21 16:58:24","","","","",41.94,-87.67,41.94,-87.65,"member"
"D12CFCFC6C9A90D5","electric_bike","2022-10-21 15:56:16","2022-10-21 16:16:00","","","Rush St & Cedar St","KA1504000133",41.83,-87.63,41.90230870122,-87.627690528,"member"
"CAA3BBEDC908FC6F","electric_bike","2022-10-29 20:29:15","2022-10-29 20:33:35","Aberdeen St & Randolph St","18062","Peoria St & Jackson Blvd","13158",41.884180784,-87.654281855,41.8776415962753,-87.6496177911758,"casual"
"803C7A895C251C7C","classic_bike","2022-10-02 06:12:54","2022-10-02 06:17:15","Racine Ave & Wrightwood Ave","TA1309000059","Sheffield Ave & Fullerton Ave","TA1306000016",41.928887,-87.658971,41.9256018819,-87.6537080423,"member"
"AADEBD8F2984AD55","classic_bike","2022-10-18 12:26:23","2022-10-18 12:32:08","Ellis Ave & 60th St","KA1503000014","Ellis Ave & 55th St","KA1504000076",41.78509714636,-87.6010727606,41.79430062054,-87.6014497734,"member"
"E32247AB6ECF6A7D","classic_bike","2022-10-01 09:43:17","2022-10-01 09:50:37","Broadway & Cornelia Ave","13278","DuSable Lake Shore Dr & Wellington Ave","TA1307000041",41.945529,-87.646439,41.9366884494997,-87.6368290185928,"member"
"B8E2400ABA804134","classic_bike","2022-10-25 08:44:15","2022-10-25 08:48:20","Larrabee St & Webster Ave","13193","Bissell St & Armitage Ave*","chargingstx1",41.921822,-87.64414,41.9182955629354,-87.6521833240986,"casual"
"A67133A820344D52","classic_bike","2022-10-01 11:52:58","2022-10-01 11:57:13","California Ave & 23rd Pl","15689","Albany Ave & 26th St","15691",41.84910969176,-87.6951398068,41.84447501366,-87.7020130128,"member"
"834BC0309636C7D4","classic_bike","2022-10-01 16:24:07","2022-10-01 16:32:46","Ada St & Washington Blvd","13353","Damen Ave & Grand Ave","TA1308000006",41.88283,-87.661206,41.8923944529627,-87.6768851280212,"member"
"11C454FFA4637020","electric_bike","2022-10-09 12:58:50","2022-10-09 13:23:41","","","Streeter Dr & Grand Ave","13022",41.94,-87.64,41.892278,-87.612043,"casual"
"36D4E6E134EB0FE4","classic_bike","2022-10-21 17:14:00","2022-10-21 17:36:29","Sheridan Rd & Buena Ave","TA1309000027","Lakefront Trail & Bryn Mawr Ave","15576",41.958494,-87.654966,41.9840441151921,-87.6522812247276,"member"
"9AC26C48C53E4FF3","electric_bike","2022-10-22 12:32:42","2022-10-22 12:42:58","Clark St & Winnemac Ave","TA1309000035","Sheridan Rd & Montrose Ave","TA1307000107",41.9732491666667,-87.6677611666667,41.96167,-87.65464,"casual"
"AD974B0F601E3E32","classic_bike","2022-10-17 12:27:54","2022-10-17 12:32:38","University Ave & 57th St","KA1503000071","Harper Ave & 59th St","KA1503000070",41.791478,-87.599861,41.78794281287,-87.5883151702,"member"
"DFBD2324DA200DB3","electric_bike","2022-10-27 19:04:42","2022-10-27 19:20:13","Ravenswood Ave & Lawrence Ave","TA1309000066","Southport Ave & Wrightwood Ave","TA1307000113",41.9691648333333,-87.6742993333333,41.928773,-87.663913,"casual"
"375523A80464FDC0","docked_bike","2022-10-21 17:26:45","2022-10-21 17:48:44","New St & Illinois St","TA1306000013","Millennium Park","13008",41.890847,-87.618617,41.881032,-87.624084,"casual"
"11D9FDD30877C438","electric_bike","2022-10-07 12:56:39","2022-10-07 13:07:09","","","Michigan Ave & Jackson Blvd","TA1309000002",41.89,-87.63,41.87785,-87.62408,"member"
"99061A85FA6528C5","classic_bike","2022-10-17 09:09:03","2022-10-17 09:15:20","Ellis Ave & 55th St","KA1504000076","Ellis Ave & 60th St","KA1503000014",41.79430062054,-87.6014497734,41.78509714636,-87.6010727606,"member"
"53642804DE9C8B8C","classic_bike","2022-10-15 17:02:49","2022-10-15 17:08:13","Lakeview Ave & Fullerton Pkwy","TA1309000019","DuSable Lake Shore Dr & Diversey Pkwy","TA1309000039",41.925858,-87.638973,41.932588,-87.636427,"casual"
"73DDB8BC8BD05DB4","electric_bike","2022-10-27 19:26:30","2022-10-27 19:31:57","Winthrop Ave & Lawrence Ave","TA1308000021","Clark St & Berwyn Ave","KA1504000146",41.968870878,-87.657708764,41.9780306224866,-87.668564915657,"casual"
"3E3549F3001F2499","classic_bike","2022-10-03 06:08:16","2022-10-03 06:12:03","Halsted St & Maxwell St","TA1309000001","Halsted St & Polk St","TA1307000121",41.864883,-87.647071,41.87184,-87.64664,"member"
"F7BCBFEC76BA1569","electric_bike","2022-10-15 15:21:20","2022-10-15 15:24:47","","","","",42.01,-87.66,42.01,-87.66,"member"
"393F5E92939A2B63","classic_bike","2022-10-02 02:44:45","2022-10-02 02:44:57","Dearborn St & Erie St","13045","Dearborn St & Erie St","13045",41.893992,-87.629318,41.893992,-87.629318,"member"
"934814D0C9FBC225","classic_bike","2022-10-09 17:04:07","2022-10-09 17:11:34","Walsh Park","18067","Milwaukee Ave & Wabansia Ave","13243",41.91461,-87.667968,41.912616,-87.681391,"member"
"1578AFFD8023EE90","electric_bike","2022-10-08 22:33:57","2022-10-08 22:45:04","Damen Ave & Madison St","13134","Green St & Washington Blvd","13053",41.8814006666667,-87.6749236666667,41.8831813059739,-87.6487246155739,"casual"
"39F0910E9DDDF5BF","classic_bike","2022-10-18 14:58:27","2022-10-18 15:05:48","Chicago Ave & Washington St","E002","Benson Ave & Church St","596",42.032562,-87.679101,42.048214,-87.683485,"member"
"E3B151820718974D","classic_bike","2022-10-15 11:16:26","2022-10-15 11:25:24","Halsted St & Dickens Ave","13192","Southport Ave & Wrightwood Ave","TA1307000113",41.919936,-87.64883,41.928773,-87.663913,"member"
"8E2D11A48FDADC14","electric_bike","2022-10-01 16:43:16","2022-10-01 16:53:00","Larrabee St & Armitage Ave","TA1309000006","DuSable Lake Shore Dr & Diversey Pkwy","TA1309000039",41.918097,-87.6437663333333,41.932588,-87.636427,"casual"
"C5FC9A9744AD24EC","classic_bike","2022-10-14 11:30:01","2022-10-14 11:50:40","Wolcott Ave & Polk St","TA1309000064","Franklin St & Jackson Blvd","TA1305000025",41.871262,-87.673688,41.8777079559,-87.6353211408,"member"
"9D1351F964C25603","electric_bike","2022-10-07 15:16:07","2022-10-07 15:22:51","","","Ellis Ave & 55th St","KA1504000076",41.79,-87.59,41.79430062054,-87.6014497734,"member"
"7EF94CFD346EC64A","electric_bike","2022-10-04 16:13:29","2022-10-04 16:17:25","Greenview Ave & Fullerton Ave","TA1307000001","Damen Ave & Clybourn Ave","13271",41.9253808333333,-87.6658676666667,41.931931,-87.677856,"member"
"489AA3098A45842D","classic_bike","2022-10-27 21:06:30","2022-10-27 21:20:15","Halsted St & Clybourn Ave","331","State St & Pearson St","TA1307000061",41.909668,-87.648128,41.897448,-87.628722,"member"
"31CBF0AA1D99370A","electric_bike","2022-10-02 15:39:59","2022-10-02 15:58:03","Rush St & Cedar St","KA1504000133","Southport Ave & Belmont Ave","13229",41.9025315,-87.6277945,41.9394777504051,-87.6637476682663,"member"
"D4C47D5D69D28A4C","electric_bike","2022-10-02 18:14:01","2022-10-02 18:28:28","","","Wabash Ave & Roosevelt Rd","TA1305000002",41.86,-87.66,41.867227,-87.625961,"casual"
"0F1004AB0CE0D861","electric_bike","2022-10-09 19:24:56","2022-10-09 19:28:14","Lakefront Trail & Bryn Mawr Ave","15576","","",41.9840316666667,-87.6522775,41.98,-87.65,"member"
"0602358D80E6A42B","electric_bike","2022-10-09 09:03:47","2022-10-09 09:06:33","Columbus Dr & Randolph St","13263","","",41.8846005,-87.6196378333333,41.88,-87.62,"casual"
"5C8FA4DCFDFC9B48","electric_bike","2022-10-30 15:16:00","2022-10-30 15:21:21","","","Larrabee St & Division St","KA1504000079",41.91,-87.65,41.90348607004,-87.6433534936,"casual"
"A9EEB590EE571855","classic_bike","2022-10-02 18:00:39","2022-10-02 18:14:16","Ritchie Ct & Banks St","KA1504000134","DuSable Lake Shore Dr & Diversey Pkwy","TA1309000039",41.906866,-87.626217,41.932588,-87.636427,"member"
"CFDED7D641DE6C21","classic_bike","2022-10-31 08:49:08","2022-10-31 08:55:07","Wells St & Evergreen Ave","TA1308000049","State St & Pearson St","TA1307000061",41.906724,-87.63483,41.897448,-87.628722,"member"
"1AFC1F7D9B1DFBAC","electric_bike","2022-10-13 20:11:03","2022-10-13 20:14:20","Ellis Ave & 55th St","KA1504000076","Kimbark Ave & 53rd St","TA1309000037",41.794375,-87.6014526666667,41.799568,-87.594747,"member"
"19F52FE8EFC37466","classic_bike","2022-10-30 11:03:52","2022-10-30 11:34:43","Shore Dr & 55th St","TA1308000009","Shedd Aquarium","15544",41.795212,-87.580715,41.86722595682,-87.6153553902,"member"
"4E44F97BF8F60195","electric_bike","2022-10-15 23:15:18","2022-10-15 23:18:39","","","California Ave & North Ave","13258",41.9,-87.69,41.9104754,-87.6968944,"member"
"60E268DB4007040F","classic_bike","2022-10-08 08:50:58","2022-10-08 09:10:02","Clark St & Lake St","KA1503000012","Wells St & Concord Ln","TA1308000050",41.88602082773,-87.6308760584,41.912133,-87.634656,"casual"
"27541BE70952D058","electric_bike","2022-10-30 07:20:00","2022-10-30 07:26:02","Western Ave & Ardmore Ave","464","","",41.99,-87.69,41.97,-87.69,"casual"
"995B5C4FB44128C4","classic_bike","2022-10-23 21:43:45","2022-10-23 21:53:53","Stony Island Ave & 75th St","KA1503000019","Jeffery Blvd & 67th St","KA1503000030",41.7586696704,-87.586882871,41.77351755125,-87.5771428255,"member"
"5FD8F8327472B654","electric_bike","2022-10-24 09:04:59","2022-10-24 09:13:59","Franklin St & Jackson Blvd","TA1305000025","Franklin St & Chicago Ave","13017",41.8780341666667,-87.6348701666667,41.8967469730938,-87.6356676220894,"member"
"156848F8D361F0E1","electric_bike","2022-10-12 15:54:04","2022-10-12 16:13:09","Narragansett & McLean","309","","",41.92,-87.79,41.92,-87.73,"member"
"7B86DCFCC8203A4D","electric_bike","2022-10-08 10:04:15","2022-10-08 10:11:00","","","","",41.91,-87.65,41.93,-87.65,"member"
"D3D51036C963DDAC","classic_bike","2022-10-05 17:23:01","2022-10-05 17:38:14","State St & Randolph St","TA1305000029","Burnham Harbor","15545",41.8846210725794,-87.6278342306614,41.857411787074,-87.6137915253639,"member"
"BF3447830423FB5C","electric_bike","2022-10-01 17:33:23","2022-10-01 17:41:03","","","Western Ave & Granville Ave","KA1504000129",42.01,-87.69,41.99416136902,-87.689438282,"member"
"E0CE6E21D31FB813","electric_bike","2022-10-19 08:25:02","2022-10-19 08:36:32","Kingsbury St & Kinzie St","KA1503000043","Peoria St & Jackson Blvd","13158",41.8892183333333,-87.6384203333333,41.8776415962753,-87.6496177911758,"member"
"26DE0818EDDFE773","electric_bike","2022-10-09 07:31:28","2022-10-09 07:34:10","Clark St & Armitage Ave","13146","Sedgwick St & North Ave","TA1307000038",41.918366,-87.6363676666667,41.911386,-87.638677,"member"
"E4EC07D517EACA9B","classic_bike","2022-10-28 17:15:55","2022-10-28 17:30:02","Rush St & Hubbard St","KA1503000044","Clinton St & Jackson Blvd","638",41.890173,-87.626185,41.8783166118307,-87.6409810781479,"member"
"C567C12B3657F273","electric_bike","2022-10-19 10:24:17","2022-10-19 10:27:24","University Ave & 57th St","KA1503000071","Ellis Ave & 60th St","KA1503000014",41.791456,-87.600001,41.78509714636,-87.6010727606,"member"
"FCF79E94132E5BE7","electric_bike","2022-10-26 10:32:41","2022-10-26 10:36:55","Sheridan Rd & Irving Park Rd","13063","Clark St & Newport St","632",41.954308033,-87.654401779,41.94454,-87.654678,"member"
"8E9AFA7A199624F3","electric_bike","2022-10-19 20:07:26","2022-10-19 20:16:07","Michigan Ave & Washington St","13001","Michigan Ave & 18th St","13150",41.8837985,-87.62391,41.857813,-87.62455,"member"
"EAC31C84E2B9596A","classic_bike","2022-10-20 12:28:16","2022-10-20 12:37:51","St. Clair St & Erie St","13016","Larrabee St & Oak St","KA1504000116",41.8943451374243,-87.6227983832359,41.90021949323,-87.6429854676,"member"
"838B70263B39922E","classic_bike","2022-10-11 08:21:31","2022-10-11 08:37:10","Mies van der Rohe Way & Chestnut St","15529","Franklin St & Monroe St","TA1309000007",41.8985866514,-87.6219152258,41.880317,-87.635185,"member"
"D5F2801170C5D082","electric_bike","2022-10-07 15:09:03","2022-10-07 15:17:13","Sheffield Ave & Fullerton Ave","TA1306000016","Dayton St & North Ave","13058",41.9255236666667,-87.6537018333333,41.9105780349,-87.6494219288,"casual"
"3C6EC34176D1C0A9","electric_bike","2022-10-24 22:44:07","2022-10-24 22:55:08","Francisco Ave & Foster Ave","KA1504000160","Broadway & Berwyn Ave","13109",41.9756561666667,-87.7014515,41.978353,-87.659753,"casual"
"DED32211F2D71729","electric_bike","2022-10-16 20:57:33","2022-10-16 21:06:50","Jefferson St & Monroe St","WL-011","State St & Chicago Ave","21544",41.8803891666667,-87.6426985,41.8966172004075,-87.628578543663,"casual"
"760BAA704E34B638","electric_bike","2022-10-03 20:24:16","2022-10-03 20:28:55","Ashland Ave & Blackhawk St","13224","","",41.907103,-87.6672086666667,41.91,-87.68,"casual"
"1D1EBFAD38CE28C3","electric_bike","2022-10-15 17:55:31","2022-10-15 18:03:22","Desplaines St & Kinzie St","TA1306000003","Dearborn St & Erie St","13045",41.8887145,-87.6444463333333,41.893992,-87.629318,"casual"
"5DAC594F9929BE67","docked_bike","2022-10-22 14:52:06","2022-10-22 15:20:11","Cityfront Plaza Dr & Pioneer Ct","13427","Ashland Ave & Division St","13061",41.890573,-87.622072,41.90345,-87.667747,"casual"
"A3E933AAF86C133C","docked_bike","2022-10-24 16:56:19","2022-10-24 17:30:06","Calumet Ave & 21st St","15546","St. Clair St & Erie St","13016",41.854184,-87.619154,41.894345,-87.622798,"casual"
"5B281272EC6074FD","classic_bike","2022-10-06 16:36:51","2022-10-06 17:02:57","LaSalle St & Illinois St","13430","Burnham Harbor","15545",41.890762,-87.631697,41.857411787074,-87.6137915253639,"casual"
"541F270DE96D5C86","electric_bike","2022-10-22 19:04:28","2022-10-22 19:13:26","Sheridan Rd & Irving Park Rd","13063","","",41.9541708333333,-87.6544526666667,41.95,-87.68,"casual"
"E6F752F2DF7100CE","electric_bike","2022-10-24 22:19:12","2022-10-24 22:23:46","Clark St & Elm St","TA1307000039","Larrabee St & Division St","KA1504000079",41.902892351,-87.631564021,41.90348607004,-87.6433534936,"member"
"A62A175EEB64BA2A","electric_bike","2022-10-22 17:43:56","2022-10-22 17:55:12","","","McClurg Ct & Ohio St","TA1306000029",41.87,-87.62,41.8925921197097,-87.6172891259193,"member"
"63B24DC400DE3E1E","electric_bike","2022-10-19 17:36:43","2022-10-19 17:46:25","Clinton St & 18th St","TA1307000044","Shedd Aquarium","15544",41.8578756666667,-87.640852,41.86722595682,-87.6153553902,"member"
"4BA2E64B743BAB74","electric_bike","2022-10-31 07:59:32","2022-10-31 08:08:22","Canal St & Jackson Blvd","13138","Wabash Ave & Wacker Pl","TA1307000131",41.8774646666667,-87.639299,41.886875,-87.62603,"member"
"344F3670CBBC778E","electric_bike","2022-10-07 17:13:11","2022-10-07 17:23:38","Sheffield Ave & Willow St","TA1306000032","","",41.9137858333333,-87.6527416666667,41.93,-87.64,"casual"
"155ABA8D744E5094","electric_bike","2022-10-29 09:34:07","2022-10-29 09:38:29","","","","",41.8,-87.59,41.8,-87.6,"member"
"AD48360FE4B0B471","electric_bike","2022-10-01 10:47:41","2022-10-01 10:53:27","Clark St & Montrose Ave","KA1503000022","Lincoln Ave & Sunnyside Ave","TA1307000156",41.9615473333333,-87.6662243333333,41.963004,-87.684781,"member"
"D00384A6CC81AE1A","electric_bike","2022-10-04 07:51:29","2022-10-04 07:57:54","Columbus Dr & Randolph St","13263","","",41.8847656666667,-87.619593,41.88,-87.63,"member"
"511B71299DC9081B","docked_bike","2022-10-08 19:57:00","2022-10-08 20:11:53","Dayton St & North Ave","13058","Greenview Ave & Fullerton Ave","TA1307000001",41.910578,-87.649422,41.92533,-87.6658,"casual"
"E6F2F9E9BB644FF6","electric_bike","2022-10-07 15:32:19","2022-10-07 15:34:49","Lincoln Ave & Fullerton Ave","TA1309000058","Sedgwick St & Webster Ave","13191",41.9241843333333,-87.6463635,41.922167,-87.638888,"member"
"3D760549362D2048","electric_bike","2022-10-03 16:46:39","2022-10-03 16:51:48","Loomis St & Lexington St","13332","Morgan St & Polk St","TA1307000130",41.8721596666667,-87.6614773333333,41.871737,-87.65103,"member"
"DEB073C4581088DA","classic_bike","2022-10-08 14:39:55","2022-10-08 14:44:06","Franklin St & Chicago Ave","13017","Kingsbury St & Kinzie St","KA1503000043",41.8967469730938,-87.6356676220894,41.88917683258,-87.6385057718,"member"
"E44019D11BC16192","classic_bike","2022-10-01 15:37:50","2022-10-01 15:51:07","Larrabee St & Webster Ave","13193","Halsted St & Roscoe St","TA1309000025",41.921822,-87.64414,41.94367,-87.64895,"member"
"AA97CFD4F1C5D049","electric_bike","2022-10-11 21:25:03","2022-10-11 21:30:20","Lincoln Ave & Belmont Ave (Temp)","TA1309000042","Wilton Ave & Belmont Ave","TA1307000134",41.939449,-87.6711678333333,41.9402319181086,-87.6529437303543,"casual"
"2DA92B784CDCBC23","classic_bike","2022-10-18 20:54:34","2022-10-18 21:00:10","Ashland Ave & McDowell Ave","16937","Hoyne Ave & 47th St","KA1504000091",41.80887,-87.66454,41.808227,-87.67718,"member"
"E67A316285F6ACF4","electric_bike","2022-10-06 23:32:37","2022-10-06 23:39:03","Sheffield Ave & Wellington Ave","TA1307000052","Clark St & Drummond Pl","TA1307000142",41.936282039,-87.652608514,41.931248,-87.644336,"member"
"EF47570CA3C6D7D3","electric_bike","2022-10-22 21:46:17","2022-10-22 21:52:59","Clarendon Ave & Leland Ave","TA1307000119","","",41.9679553333333,-87.649966,41.95,-87.64,"member"
"3AC89CB05E551989","classic_bike","2022-10-02 09:05:41","2022-10-02 09:36:40","Shedd Aquarium","15544","Indiana Ave & Roosevelt Rd","SL-005",41.86722595682,-87.6153553902,41.867888,-87.623041,"casual"
"0DA7A70B746211CC","electric_bike","2022-10-24 16:16:13","2022-10-24 16:19:42","","","University Library (NU)","605",42.06,-87.68,42.052939,-87.673447,"member"
"9BA9B2F49D6A7DDC","classic_bike","2022-10-15 14:34:35","2022-10-15 14:50:15","Ravenswood Ave & Irving Park Rd","TA1307000149","Winchester (Ravenswood) Ave & Balmoral Ave","KA1504000147",41.95469,-87.67393,41.979762,-87.67753,"member"
"DB9BC0947C19219C","electric_bike","2022-10-22 09:21:29","2022-10-22 09:51:47","Adler Planetarium","13431","Indiana Ave & 26th St","TA1307000005",41.8661598333333,-87.6072776666667,41.845687,-87.622481,"member"
"2FB242DAE6C52AB0","classic_bike","2022-10-26 22:06:59","2022-10-26 22:45:29","State St & Chicago Ave","21544","Mies van der Rohe Way & Chestnut St","15529",41.8966172004075,-87.628578543663,41.8985866514,-87.6219152258,"member"
"A713975D04DFE6ED","electric_bike","2022-10-04 14:59:28","2022-10-04 15:02:20","Leavitt St & North Ave","TA1308000005","Campbell Ave & North Ave","13257",41.910156608,-87.682446837,41.910535,-87.689556,"member"
"533F19CF085853D1","electric_bike","2022-10-05 11:02:42","2022-10-05 11:07:50","","","","",41.84,-87.63,41.84,-87.63,"member"
"5BE6799B26772ACE","electric_bike","2022-10-15 17:11:50","2022-10-15 17:17:23","Elston Ave & Wabansia Ave","TA1309000032","Damen Ave & Charleston St","13288",41.9129355,-87.6640965,41.920082,-87.677855,"member"
"5AE8AEA317A7F3AE","classic_bike","2022-10-23 21:59:30","2022-10-23 22:03:27","Wilton Ave & Belmont Ave","TA1307000134","Southport Ave & Belmont Ave","13229",41.9402319181086,-87.6529437303543,41.9394777504051,-87.6637476682663,"member"
"2C2CDA711E1C1E5B","electric_bike","2022-10-02 12:17:44","2022-10-02 12:33:24","Southport Ave & Wellington Ave","TA1307000006","Logan Blvd & Elston Ave","TA1308000031",41.935706019,-87.663629532,41.929465,-87.684158,"casual"
"14A545D3FEBD07B7","electric_bike","2022-10-03 14:31:17","2022-10-03 14:31:22","Clark St & Lincoln Ave","13179","Clark St & Lincoln Ave","13179",41.9157951666667,-87.6345725,41.915689,-87.6346,"casual"
"943B6C5EB39998D5","classic_bike","2022-10-15 16:38:37","2022-10-15 16:45:44","Kimbark Ave & 53rd St","TA1309000037","Ellis Ave & 55th St","KA1504000076",41.799568,-87.594747,41.79430062054,-87.6014497734,"member"
"7C398C2E7B6EEF47","electric_bike","2022-10-02 12:08:35","2022-10-02 12:12:35","","","","",41.94,-87.65,41.94,-87.65,"member"
"A36D315221934015","classic_bike","2022-10-06 10:33:32","2022-10-06 10:54:42","Adler Planetarium","13431","DuSable Lake Shore Dr & Monroe St","13300",41.866095,-87.607267,41.880958,-87.616743,"member"
"CFEEFB90B55E02D7","electric_bike","2022-10-03 14:01:56","2022-10-03 14:08:53","","","Kimbark Ave & 53rd St","TA1309000037",41.79,-87.6,41.799568,-87.594747,"member"
"B1312ED9A8D92F62","electric_bike","2022-10-16 17:18:56","2022-10-16 17:24:19","Wells St & Concord Ln","TA1308000050","Clark St & Elm St","TA1307000039",41.9118548333333,-87.6348791666667,41.902973,-87.63128,"member"
"51D228A616FBDD5F","electric_bike","2022-10-30 00:49:17","2022-10-30 00:54:32","Paulina Ave & North Ave","TA1305000037","Campbell Ave & North Ave","13257",41.910407901,-87.670083046,41.910535,-87.689556,"member"
"9BB357A45052AEB8","classic_bike","2022-10-13 06:50:16","2022-10-13 06:57:57","Milwaukee Ave & Rockwell St","13242","Leavitt St & North Ave","TA1308000005",41.9201955620057,-87.6926591992378,41.910509366664,-87.6823890209198,"casual"
"B0C0BC528435A3BA","electric_bike","2022-10-02 10:39:20","2022-10-02 11:09:21","Stave St & Armitage Ave","13266","","",41.9178258333333,-87.6914258333333,41.93,-87.71,"casual"
"73FF26610ECF8AE5","electric_bike","2022-10-27 08:34:01","2022-10-27 08:44:12","","","Clark St & Randolph St","TA1305000030",41.91,-87.63,41.884576228,-87.63188991,"member"
"91E7E0883CDC277E","classic_bike","2022-10-24 07:00:48","2022-10-24 07:04:07","Lake Park Ave & 53rd St","KA1503000059","Kimbark Ave & 53rd St","TA1309000037",41.79949429373,-87.5864498959,41.799568,-87.594747,"member"
"CA2FD0BDD49E617F","electric_bike","2022-10-13 13:25:41","2022-10-13 13:34:17","Emerald Ave & 28th St","TA1307000153","Halsted St & Roosevelt Rd","TA1305000017",41.8436708333333,-87.6453575,41.867324,-87.648625,"member"
"4C95B75CBDE98B69","electric_bike","2022-10-27 08:05:50","2022-10-27 08:18:01","Lakeview Ave & Fullerton Pkwy","TA1309000019","Larrabee St & Kingsbury St","TA1306000009",41.9258705,-87.6389255,41.897764,-87.642884,"member"
"BF39FD2DA6347D66","classic_bike","2022-10-13 12:11:13","2022-10-13 12:19:18","Franklin St & Illinois St","RN-","LaSalle St & Jackson Blvd","TA1309000004",41.8910233102519,-87.6354798674583,41.878166,-87.631929,"member"
"AEC9289D42B505F1","electric_bike","2022-10-02 11:12:41","2022-10-02 11:44:05","Michigan Ave & 14th St","TA1307000124","Michigan Ave & Oak St","13042",41.8643055,-87.6237598333333,41.90096039,-87.62377664,"casual"
"9F53CABB161AA251","classic_bike","2022-10-08 19:18:03","2022-10-08 19:26:36","Sheffield Ave & Wrightwood Ave","TA1309000023","Sheffield Ave & Webster Ave","TA1309000033",41.928712,-87.653833,41.92154,-87.653818,"member"
"CD6E87C89BA62DDD","electric_bike","2022-10-04 08:16:49","2022-10-04 08:29:17","Franklin St & Adams St (Temp)","TA1309000008","Ogden Ave & Congress Pkwy","13081",41.878874779,-87.635632992,41.87501,-87.67328,"member"
"B44B46217A66B482","electric_bike","2022-10-31 12:51:42","2022-10-31 13:00:17","Broadway & Berwyn Ave","13109","","",41.9783928333333,-87.6598023333333,41.97,-87.68,"member"
"7CC90FC5D9618F74","electric_bike","2022-10-11 08:33:10","2022-10-11 08:39:29","LaSalle St & Illinois St","13430","","",41.890741706,-87.631749153,41.89,-87.64,"member"
"E192522D10361501","electric_bike","2022-10-11 12:47:17","2022-10-11 13:00:11","","","","",41.9,-87.63,41.88,-87.64,"casual"
"AD248EA940A4D5AF","classic_bike","2022-10-15 12:21:42","2022-10-15 12:26:40","Walsh Park","18067","Sheffield Ave & Kingsbury St","13154",41.91461,-87.667968,41.910522,-87.653106,"member"
"7CDB3722B8073429","electric_bike","2022-10-13 20:35:45","2022-10-13 20:39:44","Racine Ave & Belmont Ave","TA1308000019","Greenview Ave & Diversey Pkwy","13294",41.939707756,-87.658906817,41.9325896342979,-87.6659363508224,"casual"
"614119C494765AD1","electric_bike","2022-10-27 16:50:29","2022-10-27 16:56:25","Shedd Aquarium","15544","Wabash Ave & Roosevelt Rd","TA1305000002",41.8672413333333,-87.6153005,41.867227,-87.625961,"member"
"B8744A4722337438","electric_bike","2022-10-04 17:18:39","2022-10-04 17:27:43","","","California Ave & Milwaukee Ave","13084",41.9,-87.7,41.922695,-87.697153,"member"
