"ride_id","rideable_type","started_at","ended_at","start_station_name","start_station_id","end_station_name","end_station_id","start_lat","start_lng","end_lat","end_lng","member_casual"
"9CAB557A04C22773","electric_bike","2022-07-11 15:15:33","2022-07-11 15:21:27","Canal St & Monroe St","13056","Daley Center Plaza","TA1306000010",41.8819455,-87.6403353333333,41.884241,-87.629634,"member"
"DEFCB0835A1ACC4B","classic_bike","2022-07-09 13:02:39","2022-07-09 13:02:54","Wabash Ave & Roosevelt Rd","TA1305000002","Wabash Ave & Roosevelt Rd","TA1305000002",41.867227,-87.625961,41.867227,-87.625961,"member"
"188DF520F81C2CC2","classic_bike","2022-07-11 15:11:06","2022-07-11 15:23:55","Ellis Ave & 55th St","KA1504000076","Blackstone Ave & Hyde Park Blvd","13398",41.79430062054,-87.6014497734,41.802562,-87.590368,"member"
"DA1CDE6E9D4417CD","classic_bike","2022-07-03 11:58:53","2022-07-03 12:20:08","Lincoln Park Conservatory","LP-","Michigan Ave & Oak St","13042",41.9239313113662,-87.6358245313168,41.90096039,-87.62377664,"casual"
"9A3FE44107288068","electric_bike","2022-07-08 12:41:56","2022-07-08 12:46:39","","","","",41.87,-87.64,41.86,-87.65,"member"
"5E47D73A7B774585","classic_bike","2022-07-05 08:19:23","2022-07-05 08:21:15","Desplaines St & Jackson Blvd","15539","Clinton St & Jackson Blvd","638",41.8781189009123,-87.6439476013184,41.8783166118307,-87.6409810781479,"member"
"C683E47E3FBAD257","docked_bike","2022-07-20 15:19:45","2022-07-20 15:36:31","Michigan Ave & Lake St","TA1305000011","Michigan Ave & Oak St","13042",41.886024,-87.624117,41.90096,-87.623777,"casual"
"779D8424D3C6A6B5","classic_bike","2022-07-28 18:05:31","2022-07-28 18:28:07","DuSable Lake Shore Dr & Wellington Ave","TA1307000041","Sheridan Rd & Lawrence Ave","TA1309000041",41.9366884494997,-87.6368290185928,41.969517,-87.654691,"casual"
"7264FFEEB789A6AF","classic_bike","2022-07-10 16:54:32","2022-07-10 17:12:32","Sheffield Ave & Wrightwood Ave","TA1309000023","Clark St & Drummond Pl","TA1307000142",41.928712,-87.653833,41.931248,-87.644336,"member"
"ACDC104F192BA0FB","classic_bike","2022-07-28 19:04:39","2022-07-28 19:16:45","Franklin St & Chicago Ave","13017","Bissell St & Armitage Ave*","chargingstx1",41.8967469730938,-87.6356676220894,41.9182955629354,-87.6521833240986,"member"
"5C6D12CA2A8555CE","classic_bike","2022-07-30 22:35:31","2022-07-30 23:28:30","Streeter Dr & Grand Ave","13022","Michigan Ave & Washington St","13001",41.892278,-87.612043,41.8839840647265,-87.6246839761734,"casual"
"892146A066466A5F","classic_bike","2022-07-02 16:54:05","2022-07-02 17:00:14","Dayton St & North Ave","13058","Sedgwick St & North Ave","TA1307000038",41.9105780349,-87.6494219288,41.911386,-87.638677,"member"
"DA357ACD39968D0F","electric_bike","2022-07-09 08:57:34","2022-07-09 09:03:09","Calumet Ave & 35th St","13345","Wallace St & 35th St","TA1308000045",41.83141315,-87.618052006,41.8307070514409,-87.6412553340197,"casual"
"8723B14D11C4A5DA","classic_bike","2022-07-13 16:34:14","2022-07-13 16:44:57","Rush St & Hubbard St","KA1503000044","Clinton St & Jackson Blvd","638",41.890173,-87.626185,41.8783166118307,-87.6409810781479,"member"
"925BFB5EF7F0C2B5","electric_bike","2022-07-07 18:55:22","2022-07-07 19:04:03","Southport Ave & Roscoe St","13071","Burling St & Diversey Pkwy","TA1309000036",41.9436955,-87.6639983333333,41.93314,-87.64776,"member"
"7B1897116BD5C34D","classic_bike","2022-07-18 11:22:22","2022-07-18 11:32:09","Sheffield Ave & Wrightwood Ave","TA1309000023","Sedgwick St & Webster Ave","13191",41.928712,-87.653833,41.922167,-87.638888,"casual"
"5EA183A5C969007D","classic_bike","2022-07-18 18:18:19","2022-07-18 18:29:05","Halsted St & Willow St","TA1307000166","Wells St & Elm St","KA1504000135",41.913865,-87.648755,41.903222,-87.634324,"member"
"B5A0EC21DE6B1392","docked_bike","2022-07-08 14:56:56","2022-07-08 15:12:53","Clark St & Winnemac Ave","TA1309000035","Leavitt St & Lawrence Ave","TA1309000015",41.973348,-87.667855,41.968885,-87.684001,"casual"
"D111066B5E95101B","electric_bike","2022-07-11 16:09:26","2022-07-11 16:26:51","Lincoln Ave & Fullerton Ave","TA1309000058","Clark St & Montrose Ave","KA1503000022",41.9242321666667,-87.6464263333333,41.961588,-87.666036,"casual"
"8C15479983EC54EA","classic_bike","2022-07-21 12:09:58","2022-07-21 12:16:35","Stockton Dr & Wrightwood Ave","13276","Theater on the Lake","TA1308000001",41.93132,-87.638742,41.926277,-87.630834,"member"
"FA6C8FC4959A19D6","classic_bike","2022-07-12 10:57:44","2022-07-12 11:01:30","Broadway & Barry Ave","13137","Halsted St & Roscoe St","TA1309000025",41.9375823160063,-87.6440978050232,41.94367,-87.64895,"member"
"AE4C60D47F719B9C","classic_bike","2022-07-04 16:56:11","2022-07-04 17:14:08","Wentworth Ave & Cermak Rd","13075","Wentworth Ave & 35th St","KA1503000005",41.8530845574128,-87.6319313049316,41.830777,-87.632504,"casual"
"AD28C7AF432AEF54","electric_bike","2022-07-03 07:08:56","2022-07-03 07:10:57","","","State St & Pearson St","TA1307000061",41.9,-87.63,41.897448,-87.628722,"member"
"FB882FC62CC4EF4D","electric_bike","2022-07-13 20:04:25","2022-07-13 20:17:36","Franklin St & Monroe St","TA1309000007","Clark St & Schiller St","TA1309000024",41.8805541666667,-87.6353388333333,41.907993,-87.631501,"member"
"6801E47409CD28E7","electric_bike","2022-07-14 20:23:01","2022-07-14 20:29:14","","","Halsted St & Wrightwood Ave","TA1309000061",41.93,-87.64,41.929143,-87.649077,"casual"
"0F248FCA14F8572B","electric_bike","2022-07-22 12:57:06","2022-07-22 13:24:56","Lakeview Ave & Fullerton Pkwy","TA1309000019","Damen Ave & Division St","13136",41.9258908333333,-87.638989,41.903266,-87.678435,"casual"
"C2E6F2FC331B12B5","classic_bike","2022-07-25 14:23:17","2022-07-25 14:35:57","Clinton St & Roosevelt Rd","WL-008","Halsted St & Archer Ave","TA1308000013",41.8671177825,-87.6410879593,41.847203,-87.646795,"member"
"F9473195ECB71DAE","electric_bike","2022-07-24 20:30:51","2022-07-24 20:54:57","","","","",41.98,-87.69,41.98,-87.69,"casual"
"C1A7E4D8A8591C9F","docked_bike","2022-07-29 13:32:39","2022-07-29 14:07:11","Michigan Ave & Oak St","13042","Shedd Aquarium","15544",41.90096,-87.623777,41.867226,-87.615355,"casual"
"A44A6503BD0ADCF9","classic_bike","2022-07-27 20:23:06","2022-07-27 20:29:39","McCormick Place","TA1305000004","MLK Jr Dr & 29th St","TA1307000139",41.8513751729,-87.6188346489,41.842052,-87.617,"member"
"0723F0C91B93AFCA","classic_bike","2022-07-11 08:08:01","2022-07-11 08:10:37","Wells St & Huron St","TA1306000012","Wells St & Hubbard St","TA1307000151",41.894722,-87.634362,41.889906,-87.634266,"member"
"A96FABAA13EA50C1","electric_bike","2022-07-07 16:23:37","2022-07-07 16:31:07","Clark St & Schreiber Ave","KA1504000156","Warren Park East","RP-002",41.999248,-87.671447,42.00454962194,-87.6806661451,"member"
"803D3A402E0CF395","classic_bike","2022-07-03 14:55:28","2022-07-03 15:01:09","DuSable Lake Shore Dr & Wellington Ave","TA1307000041","Lakeview Ave & Fullerton Pkwy","TA1309000019",41.9366884494997,-87.6368290185928,41.925858,-87.638973,"member"
"8ABE49BDE6FAA751","electric_bike","2022-07-07 12:40:08","2022-07-07 12:47:14","Franklin St & Adams St (Temp)","TA1309000008","","",41.8793946666667,-87.6353905,41.88,-87.65,"member"
"3E3ED7E66B1F1D53","electric_bike","2022-07-08 08:28:25","2022-07-08 08:43:18","Wood St & Augusta Blvd","657","Franklin St & Monroe St","TA1309000007",41.8991251666667,-87.6721701666667,41.880317,-87.635185,"casual"
"72B9898919FFB7C8","classic_bike","2022-07-20 21:38:30","2022-07-20 21:40:41","Spaulding Ave & Armitage Ave","15650","Spaulding Ave & Armitage Ave","15650",41.9171080347893,-87.7102209627628,41.9171080347893,-87.7102209627628,"member"
"9524E21BFDD25996","classic_bike","2022-07-28 21:41:15","2022-07-28 21:54:28","Sedgwick St & Webster Ave","13191","Wells St & Elm St","KA1504000135",41.922167,-87.638888,41.903222,-87.634324,"member"
"9A62A77816816EDE","classic_bike","2022-07-13 20:04:49","2022-07-13 20:14:09","Sheridan Rd & Noyes St (NU)","604","Benson Ave & Church St","596",42.058239,-87.677432,42.048214,-87.683485,"member"
"B23B4F64A750F13B","electric_bike","2022-07-12 00:02:42","2022-07-12 00:15:00","DuSable Lake Shore Dr & Diversey Pkwy","TA1309000039","Michigan Ave & Oak St","13042",41.9325755,-87.6364086666667,41.90096039,-87.62377664,"casual"
"B0CA1309E6B008A6","docked_bike","2022-07-06 05:15:40","2022-07-06 05:39:52","Morgan St & 18th St","13163","Wabash Ave & Grand Ave","TA1307000117",41.858086,-87.651073,41.891466,-87.626761,"casual"
"9927B9B11283FECE","electric_bike","2022-07-14 21:12:55","2022-07-14 21:35:22","Greenview Ave & Fullerton Ave","TA1307000001","","",41.9254513333333,-87.6658216666667,41.88,-87.65,"member"
"C488E622A0024118","classic_bike","2022-07-03 14:11:36","2022-07-03 14:21:26","Lakefront Trail & Bryn Mawr Ave","15576","Winthrop Ave & Lawrence Ave","TA1308000021",41.9840441151921,-87.6522812247276,41.968812,-87.657659,"member"
"EAAB5098854C8713","classic_bike","2022-07-07 19:37:50","2022-07-07 19:42:02","Damen Ave & Pierce Ave","TA1305000041","Honore St & Division St","TA1305000034",41.9093960065,-87.6776919292,41.903119,-87.673935,"member"
"9B84117830F8F416","classic_bike","2022-07-29 16:51:29","2022-07-29 17:06:25","Wells St & Hubbard St","TA1307000151","Clark St & Lincoln Ave","13179",41.889906,-87.634266,41.915689,-87.6346,"member"
"167E94DD1CA2D847","electric_bike","2022-07-14 07:37:14","2022-07-14 07:44:29","Canal St & Monroe St","13056","Michigan Ave & Lake St","TA1305000011",41.881553,-87.6394233333333,41.886024,-87.624117,"member"
"C6FD78FD022A54B0","classic_bike","2022-07-04 10:39:21","2022-07-04 10:42:09","Ada St & Washington Blvd","13353","Aberdeen St & Randolph St","18062",41.88283,-87.661206,41.884114,-87.654264,"member"
"88A8FD42EC1AA2BD","classic_bike","2022-07-04 10:49:33","2022-07-04 11:58:37","Clarendon Ave & Leland Ave","TA1307000119","Clarendon Ave & Leland Ave","TA1307000119",41.967968,-87.650001,41.967968,-87.650001,"casual"
"3F8A842E2C876F0F","docked_bike","2022-07-19 20:33:30","2022-07-19 20:55:20","Dusable Harbor","KA1503000064","Streeter Dr & Grand Ave","13022",41.886976,-87.612813,41.892278,-87.612043,"casual"
"2E8425AA5C15A1D6","classic_bike","2022-07-28 15:13:43","2022-07-28 15:17:12","Clark St & Montrose Ave","KA1503000022","Southport Ave & Irving Park Rd","TA1309000043",41.961588,-87.666036,41.954177,-87.664358,"member"
"4C1EE4A2215F5E73","electric_bike","2022-07-04 07:23:18","2022-07-04 07:28:00","Orleans St & Chestnut St (NEXT Apts)","620","St. Clair St & Erie St","13016",41.89805,-87.6374838333333,41.8943451374243,-87.6227983832359,"member"
"DEB6ED91E28405D6","electric_bike","2022-07-11 10:33:39","2022-07-11 10:34:23","","","","",41.9,-87.67,41.9,-87.67,"casual"
"A5BAC41038ECBDE7","electric_bike","2022-07-22 07:41:03","2022-07-22 07:53:17","","","Franklin St & Adams St (Temp)","TA1309000008",41.91,-87.67,41.8794340914001,-87.6355040073395,"casual"
"2A764EA3CBBAD201","classic_bike","2022-07-13 20:43:43","2022-07-13 23:11:07","Broadway & Belmont Ave","13277","Broadway & Belmont Ave","13277",41.940106,-87.645451,41.940106,-87.645451,"casual"
"97ED847361AFD625","electric_bike","2022-07-15 22:50:17","2022-07-15 22:59:37","Southport Ave & Wrightwood Ave","TA1307000113","Dayton St & North Ave","13058",41.928796,-87.6638738333333,41.9105780349,-87.6494219288,"casual"
"43D5CAC9C92EABCF","electric_bike","2022-07-22 08:13:17","2022-07-22 08:16:41","Lincoln Ave & Roscoe St*","chargingstx5","","",41.9431676666667,-87.6706853333333,41.95,-87.68,"member"
"05ED2FE5A098586C","classic_bike","2022-07-11 10:19:20","2022-07-11 10:27:25","Larrabee St & Kingsbury St","TA1306000009","Morgan St & Lake St","TA1306000015",41.897764,-87.642884,41.8857792524043,-87.6510246098041,"member"
"6DE4B0EA56761E4A","electric_bike","2022-07-31 04:22:04","2022-07-31 04:25:48","","","","",41.93,-87.64,41.94,-87.64,"member"
"7CC35314C4167A44","electric_bike","2022-07-03 13:19:17","2022-07-03 13:58:08","Halsted St & Roscoe St","TA1309000025","Streeter Dr & Grand Ave","13022",41.9436825,-87.6489003333333,41.892278,-87.612043,"casual"
"D507A8B07A528442","classic_bike","2022-07-04 21:14:47","2022-07-04 21:17:27","Kimbark Ave & 53rd St","TA1309000037","Woodlawn Ave & 55th St","TA1307000164",41.799568,-87.594747,41.795264,-87.596471,"casual"
"FD2EA4DADF429978","electric_bike","2022-07-16 17:55:49","2022-07-16 18:07:39","Ashland Ave & Blackhawk St","13224","Ashland Ave & Lake St","13073",41.9070323333333,-87.6672743333333,41.88592,-87.66717,"casual"
"17111DC41A3A70BE","electric_bike","2022-07-13 18:30:55","2022-07-13 18:36:08","Burling St & Diversey Pkwy","TA1309000036","DuSable Lake Shore Dr & Diversey Pkwy","TA1309000039",41.9331766666667,-87.647718,41.932588,-87.636427,"member"
"C6E8102A394619C6","electric_bike","2022-07-02 14:44:54","2022-07-02 14:57:30","Halsted St & 104th St","20125","Lafayette Ave & 119th St","589",41.7051758333333,-87.6424768333333,41.68,-87.62,"casual"
"79E24E808A81B719","electric_bike","2022-07-16 21:13:21","2022-07-16 21:31:05","Calumet Ave & 18th St","13102","Michigan Ave & Jackson Blvd","TA1309000002",41.8576828333333,-87.6194448333333,41.87785,-87.62408,"casual"
"104967D9CBD87F30","classic_bike","2022-07-19 15:13:22","2022-07-19 15:21:46","Clark St & Bryn Mawr Ave","KA1504000151","Lakefront Trail & Bryn Mawr Ave","15576",41.983593,-87.669154,41.9840441151921,-87.6522812247276,"casual"
"7A9667745999CF55","classic_bike","2022-07-11 17:59:52","2022-07-11 18:19:39","Wabash Ave & Roosevelt Rd","TA1305000002","Morgan St & 18th St","13163",41.867227,-87.625961,41.858086,-87.651073,"casual"
"35564BAA28BA5C9E","classic_bike","2022-07-28 20:03:09","2022-07-28 20:14:37","DuSable Lake Shore Dr & North Blvd","LF-005","DuSable Lake Shore Dr & Diversey Pkwy","TA1309000039",41.911722,-87.626804,41.932588,-87.636427,"member"
"D30106CC27CED385","electric_bike","2022-07-16 00:35:57","2022-07-16 00:45:49","Sheffield Ave & Waveland Ave","TA1307000126","","",41.9490871666667,-87.6544713333333,41.96,-87.65,"member"
"6CE0D2DB28B62143","classic_bike","2022-07-31 13:01:54","2022-07-31 13:39:19","Clark St & Lincoln Ave","13179","Wells St & Concord Ln","TA1308000050",41.915689,-87.6346,41.912133,-87.634656,"casual"
"247229A293B6AD95","classic_bike","2022-07-01 19:02:25","2022-07-01 19:15:15","Clark St & Randolph St","TA1305000030","Racine Ave & Washington Blvd","654",41.884576228,-87.63188991,41.883073,-87.656952,"member"
"A8AC49186869CABA","classic_bike","2022-07-17 23:28:01","2022-07-17 23:33:01","Lincoln Ave & Roscoe St*","chargingstx5","Western Ave & Roscoe St","15634",41.9433502470174,-87.6706677675247,41.943034,-87.687288,"member"
"4913AA1D793A9E7D","electric_bike","2022-07-12 13:15:16","2022-07-12 13:21:55","Clinton St & Jackson Blvd","638","","",41.8786825,-87.6413993333333,41.87,-87.64,"casual"
"89E5621D4932EE4D","classic_bike","2022-07-26 17:11:49","2022-07-26 17:19:03","Wood St & Milwaukee Ave","13221","Western Ave & Winnebago Ave","13068",41.907655,-87.672552,41.91552,-87.687022,"member"
"BC58D7533E262C09","classic_bike","2022-07-11 13:00:50","2022-07-11 13:34:56","Theater on the Lake","TA1308000001","McClurg Ct & Ohio St","TA1306000029",41.926277,-87.630834,41.8925921197097,-87.6172891259193,"casual"
"55D585E4F2C66905","classic_bike","2022-07-30 16:43:11","2022-07-30 16:44:24","Sheffield Ave & Willow St","TA1306000032","Halsted St & Willow St","TA1307000166",41.913688,-87.652855,41.913865,-87.648755,"member"
"B423B8083E9B171F","electric_bike","2022-07-22 12:59:39","2022-07-22 13:14:28","Seeley Ave & Roscoe St","13144","","",41.943404198,-87.67965889,41.94,-87.65,"casual"
"8DA60D3D8C0FFB99","classic_bike","2022-07-09 15:23:57","2022-07-09 15:26:02","Dearborn Pkwy & Delaware Pl","TA1307000128","State St & Pearson St","TA1307000061",41.898969,-87.629912,41.897448,-87.628722,"casual"
"1AE21E911C1CD186","electric_bike","2022-07-18 06:34:25","2022-07-18 06:50:09","Morgan Ave & 14th Pl","TA1306000002","Streeter Dr & Grand Ave","13022",41.8624378333333,-87.6512313333333,41.892278,-87.612043,"member"
"9DDCD79651B00A5C","electric_bike","2022-07-09 13:46:12","2022-07-09 14:04:31","Clarendon Ave & Junior Ter","13389","Clark St & Winnemac Ave","TA1309000035",41.960964799,-87.649517655,41.973347640473,-87.6678554713726,"casual"
"C170A152CD8918A2","classic_bike","2022-07-30 16:18:51","2022-07-30 16:27:20","Wells St & Elm St","KA1504000135","Orleans St & Merchandise Mart Plaza","TA1305000022",41.903222,-87.634324,41.888243,-87.63639,"member"
"728895C94CBE74F2","classic_bike","2022-07-13 12:08:57","2022-07-13 12:28:38","Halsted St & Clybourn Ave","331","Mies van der Rohe Way & Chicago Ave","13338",41.909668,-87.648128,41.8969446263708,-87.6217576861382,"member"
"867972619A8C7A52","classic_bike","2022-07-31 01:07:21","2022-07-31 01:50:17","Green St & Madison St","TA1307000120","Lincoln Ave & Belle Plaine Ave","TA1309000026",41.881892,-87.648789,41.9560035507855,-87.6801614463329,"casual"
"7D69606A2244FA50","electric_bike","2022-07-13 18:03:15","2022-07-13 18:16:56","Clark St & Armitage Ave","13146","","",41.9183531666667,-87.6363756666667,41.93,-87.65,"casual"
"D905FBB54B879405","docked_bike","2022-07-16 00:48:32","2022-07-16 01:27:24","Clark St & Schiller St","TA1309000024","Clark St & Drummond Pl","TA1307000142",41.907993,-87.631501,41.931248,-87.644336,"casual"
"744A98AD0F06F12F","classic_bike","2022-07-17 20:21:11","2022-07-17 20:23:41","Franklin St & Illinois St","RN-","Wells St & Huron St","TA1306000012",41.8910233102519,-87.6354798674583,41.894722,-87.634362,"member"
"32E58E0EC4055A19","electric_bike","2022-07-19 20:19:43","2022-07-19 20:38:37","Bernard St & Elston Ave","18016","Bernard St & Elston Ave","18016",41.9499103333333,-87.713956,41.949923,-87.713949,"casual"
"0FB58629DF5C5D78","classic_bike","2022-07-11 17:11:26","2022-07-11 17:20:55","Clark St & Newport St","632","Clark St & Drummond Pl","TA1307000142",41.94454,-87.654678,41.931248,-87.644336,"casual"
"0F866FB9793DE9A9","electric_bike","2022-07-21 14:23:08","2022-07-21 15:59:24","","","Clark St & Drummond Pl","TA1307000142",41.94,-87.65,41.931248,-87.644336,"casual"
"41EB585D1B385C2F","classic_bike","2022-07-03 09:32:47","2022-07-03 09:42:42","Rush St & Cedar St","KA1504000133","Wells St & Concord Ln","TA1308000050",41.90230870122,-87.627690528,41.912133,-87.634656,"casual"
"4E67AF1F2AC2BFFC","classic_bike","2022-07-05 19:32:40","2022-07-05 19:58:33","California Ave & Milwaukee Ave","13084","Milwaukee Ave & Cuyler Ave","16991",41.922695,-87.697153,41.954468,-87.749594,"member"
"8ECC1DECD3CE3EAE","classic_bike","2022-07-07 16:29:14","2022-07-07 16:35:46","New St & Illinois St","TA1306000013","Michigan Ave & Washington St","13001",41.8908470406238,-87.6186168193817,41.8839840647265,-87.6246839761734,"member"
"D3882CE9BEBBFDE6","classic_bike","2022-07-12 17:15:58","2022-07-12 17:19:23","Ellis Ave & 60th St","KA1503000014","University Ave & 57th St","KA1503000071",41.78509714636,-87.6010727606,41.791478,-87.599861,"member"
"398EC46A67470B05","electric_bike","2022-07-25 14:40:09","2022-07-25 14:51:22","Dearborn St & Monroe St","TA1305000006","Rush St & Superior St","15530",41.8810571666667,-87.6297341666667,41.89576474564,-87.6259080327,"member"
"F48C42790282CA46","classic_bike","2022-07-11 13:55:25","2022-07-11 15:10:18","McCormick Place","TA1305000004","Dusable Harbor","KA1503000064",41.8513751729,-87.6188346489,41.886976,-87.612813,"casual"
"86ECD0A963E8FC01","electric_bike","2022-07-01 05:44:09","2022-07-01 05:50:45","","","Halsted St & Polk St","TA1307000121",41.86,-87.66,41.87184,-87.64664,"member"
"04984D3F705BF633","electric_bike","2022-07-11 07:54:15","2022-07-11 09:02:59","Wabash Ave & Grand Ave","TA1307000117","Michigan Ave & Lake St","TA1305000011",41.891215444,-87.626386046,41.886024,-87.624117,"casual"
"B4B1F02D78352941","classic_bike","2022-07-11 17:33:49","2022-07-11 18:22:36","Canal St & Madison St","13341","Clarendon Ave & Gordon Ter","13379",41.882091,-87.639833,41.9578665241517,-87.6495051383972,"member"
"8A14D058C262F225","electric_bike","2022-07-20 12:23:52","2022-07-20 12:27:31","Wells St & Hubbard St","TA1307000151","Clinton St & Washington Blvd","WL-012",41.8900535,-87.6344631666667,41.88338,-87.64117,"casual"
"0BF781C56C94AAD4","classic_bike","2022-07-07 20:48:34","2022-07-07 20:52:33","Wentworth Ave & Cermak Rd","13075","Halsted St & Archer Ave","TA1308000013",41.8530845574128,-87.6319313049316,41.847203,-87.646795,"casual"
"F52988A8C3912A43","electric_bike","2022-07-10 13:46:06","2022-07-10 14:00:06","Elston Ave & Wabansia Ave","TA1309000032","","",41.9129643333333,-87.6641315,41.94,-87.72,"member"
"0E97AB231C0C10EF","classic_bike","2022-07-29 21:11:21","2022-07-29 21:23:21","Pine Grove Ave & Irving Park Rd","TA1308000022","Clark St & Drummond Pl","TA1307000142",41.954383,-87.648043,41.931248,-87.644336,"member"
"C24EF1617CE093A1","classic_bike","2022-07-17 11:37:51","2022-07-17 11:50:17","Kedzie Ave & Lake St","KA1504000106","Western Ave & Monroe St","15667",41.88460328501,-87.7063037436,41.8797877089,-87.686112808,"member"
"F80C9F9583992C27","classic_bike","2022-07-27 16:53:24","2022-07-27 17:03:54","Franklin St & Illinois St","RN-","Franklin St & Jackson Blvd","TA1305000025",41.8910233102519,-87.6354798674583,41.8777079559,-87.6353211408,"casual"
"AE36A0D348829665","classic_bike","2022-07-14 08:35:35","2022-07-14 08:46:33","Larrabee St & Kingsbury St","TA1306000009","Desplaines St & Jackson Blvd","15539",41.897764,-87.642884,41.8781189009123,-87.6439476013184,"casual"
"4F052DB65B8B67A4","electric_bike","2022-07-07 18:20:37","2022-07-07 18:22:44","DuSable Lake Shore Dr & Diversey Pkwy","TA1309000039","DuSable Lake Shore Dr & Diversey Pkwy","TA1309000039",41.9325423333333,-87.6364301666667,41.932588,-87.636427,"casual"
"084B9C3530C4CC1D","electric_bike","2022-07-02 08:30:57","2022-07-02 08:48:40","Michigan Ave & 18th St","13150","Dusable Harbor","KA1503000064",41.8578455,-87.6244238333333,41.886976,-87.612813,"member"
"EB46CE8027B368A5","electric_bike","2022-07-27 23:28:10","2022-07-27 23:44:07","","","Pine Grove Ave & Waveland Ave","TA1307000150",41.92,-87.64,41.9494727408833,-87.6464527845383,"member"
"546205AED6ABCA2E","classic_bike","2022-07-22 23:36:42","2022-07-22 23:45:47","Sedgwick St & North Ave","TA1307000038","Orleans St & Elm St","TA1306000006",41.911386,-87.638677,41.902924,-87.637715,"member"
"553674FAB9B820D1","electric_bike","2022-07-06 17:47:56","2022-07-06 18:04:47","Damen Ave & Chicago Ave","13132","Sheffield Ave & Willow St","TA1306000032",41.8956018333333,-87.6770685,41.913688,-87.652855,"member"
"FCE1D6B57FEAA0BA","classic_bike","2022-07-10 15:48:55","2022-07-10 16:06:59","Theater on the Lake","TA1308000001","Montrose Harbor","TA1308000012",41.926277,-87.630834,41.963982,-87.638181,"casual"
"EE127176327D1D55","electric_bike","2022-07-29 15:22:45","2022-07-29 16:18:11","Sheffield Ave & Fullerton Ave","TA1306000016","","",41.9256755,-87.6536915,41.88,-87.62,"casual"
"EC07BA45E9F5F6D1","electric_bike","2022-07-21 15:01:20","2022-07-21 15:10:04","Field Blvd & South Water St","15534","Michigan Ave & Ida B Wells Dr","TA1305000010",41.8864773333333,-87.6174916666667,41.876243,-87.624426,"casual"
"08C205EDFE745F92","classic_bike","2022-07-08 19:41:42","2022-07-08 19:44:57","New St & Illinois St","TA1306000013","Fairbanks St & Superior St","18003",41.8908470406238,-87.6186168193817,41.895748,-87.620104,"member"
"59D360ABDC967BBF","classic_bike","2022-07-07 22:23:37","2022-07-07 22:31:50","Lakeview Ave & Fullerton Pkwy","TA1309000019","DuSable Lake Shore Dr & Wellington Ave","TA1307000041",41.925858,-87.638973,41.9366884494997,-87.6368290185928,"member"
"87996EEC7E5F96FF","electric_bike","2022-07-14 13:54:12","2022-07-14 14:29:36","DuSable Lake Shore Dr & Monroe St","13300","","",41.880980492,-87.616782784,41.89,-87.61,"casual"
"BE1FDC70D8182B79","classic_bike","2022-07-09 20:54:28","2022-07-09 21:16:31","Michigan Ave & Oak St","13042","Streeter Dr & Grand Ave","13022",41.90096039,-87.62377664,41.892278,-87.612043,"casual"
"065DD72BBA9A52EA","classic_bike","2022-07-25 18:48:07","2022-07-25 18:48:28","Sheridan Rd & Lawrence Ave","TA1309000041","Sheridan Rd & Lawrence Ave","TA1309000041",41.969517,-87.654691,41.969517,-87.654691,"member"
"FBCF1CE3D2C9C21E","classic_bike","2022-07-18 18:17:04","2022-07-18 20:07:38","DuSable Lake Shore Dr & Monroe St","13300","Clinton St & Madison St","TA1305000032",41.880958,-87.616743,41.882242,-87.641066,"casual"
"1BEC318585C2DB67","classic_bike","2022-07-10 10:20:07","2022-07-10 10:30:59","Elston Ave & Cortland St","TA1305000039","Clark St & Lincoln Ave","13179",41.9164334291265,-87.6667463779449,41.915689,-87.6346,"member"
"ABEEC9885C4ACAC1","classic_bike","2022-07-18 13:37:17","2022-07-18 14:00:39","Clark St & 9th St (AMLI)","SL-009","Clark St & 9th St (AMLI)","SL-009",41.870816,-87.631246,41.870816,-87.631246,"casual"
"684680EB9B7148F8","electric_bike","2022-07-22 05:53:02","2022-07-22 06:00:23","Canal St & Adams St","13011","Aberdeen St & Randolph St","18062",41.8800016666667,-87.6397818333333,41.884114,-87.654264,"member"
"7342E7CFD8B00402","electric_bike","2022-07-28 10:13:05","2022-07-28 10:31:38","","","Clark St & Lincoln Ave","13179",41.89,-87.65,41.915689,-87.6346,"member"
"F40BFF4BB7A9DE5D","classic_bike","2022-07-15 22:21:48","2022-07-15 22:28:37","Sedgwick St & Huron St","TA1307000062","Wells St & Elm St","KA1504000135",41.894666,-87.638437,41.903222,-87.634324,"casual"
"4A5A0738E389377B","electric_bike","2022-07-25 00:34:59","2022-07-25 00:43:52","Austin Blvd & Lake St","16906","","",41.887949944,-87.774448037,41.91,-87.77,"casual"
"57018420C46F9646","electric_bike","2022-07-25 19:08:01","2022-07-25 19:17:51","Halsted St & Wrightwood Ave","TA1309000061","","",41.9291626666667,-87.6491465,41.91,-87.63,"member"
"550B714179246E82","electric_bike","2022-07-22 15:19:16","2022-07-22 15:32:15","Dusable Harbor","KA1503000064","Theater on the Lake","TA1308000001",41.8868901666667,-87.6128263333333,41.926277,-87.630834,"member"
"48275AB0E2110FF5","classic_bike","2022-07-31 20:48:25","2022-07-31 21:10:41","Damen Ave & 59th St","561","Marshfield Ave & 59th St","560",41.785861065132,-87.674143910408,41.786833,-87.666215,"casual"
"6352BD6D6DE576DF","classic_bike","2022-07-13 19:45:21","2022-07-13 19:49:51","Kingsbury St & Kinzie St","KA1503000043","Wells St & Huron St","TA1306000012",41.88917683258,-87.6385057718,41.894722,-87.634362,"member"
"09E11888AEDD742B","electric_bike","2022-07-06 21:24:53","2022-07-06 21:30:54","","","Ellis Ave & 60th St","KA1503000014",41.79,-87.6,41.78509714636,-87.6010727606,"casual"
"1C8894841F1B6708","electric_bike","2022-07-30 12:16:03","2022-07-30 12:33:05","Streeter Dr & Grand Ave","13022","","",41.8921416666667,-87.611936,41.91,-87.63,"casual"
"2B0E4CF59EB8FF1E","classic_bike","2022-07-06 18:45:26","2022-07-06 18:55:51","Wabash Ave & Roosevelt Rd","TA1305000002","Shedd Aquarium","15544",41.867227,-87.625961,41.86722595682,-87.6153553902,"casual"
"186E93CFC5AD0F50","electric_bike","2022-07-24 10:54:03","2022-07-24 10:57:15","LaSalle St & Illinois St","13430","Rush St & Superior St","15530",41.8907421666667,-87.6317993333333,41.89576474564,-87.6259080327,"member"
"C6F40F8A5C4FF5FA","classic_bike","2022-07-06 12:31:05","2022-07-06 12:41:32","Streeter Dr & Grand Ave","13022","DuSable Lake Shore Dr & North Blvd","LF-005",41.892278,-87.612043,41.911722,-87.626804,"member"
"E7A51A52EA92245B","docked_bike","2022-07-29 20:02:22","2022-07-29 21:21:38","Michigan Ave & Oak St","13042","Dearborn Pkwy & Delaware Pl","TA1307000128",41.90096,-87.623777,41.898969,-87.629912,"casual"
"25BFD5F200363BA5","electric_bike","2022-07-11 21:45:15","2022-07-11 21:52:18","Broadway & Belmont Ave","13277","Sheffield Ave & Webster Ave","TA1309000033",41.9400836666667,-87.6454263333333,41.92154,-87.653818,"casual"
"1ED2786261B137CF","electric_bike","2022-07-21 11:37:41","2022-07-21 11:46:25","Halsted St & Maxwell St","TA1309000001","Adler Planetarium","13431",41.8648178333333,-87.6471155,41.866095,-87.607267,"member"
"A987CC24071AF824","electric_bike","2022-07-21 17:13:14","2022-07-21 17:33:34","Clinton St & Washington Blvd","WL-012","Damen Ave & Wabansia Ave","20.0",41.8833061666667,-87.6413481666667,41.91,-87.68,"member"
"0B43997F748152AA","electric_bike","2022-07-19 12:07:09","2022-07-19 12:17:01","Mies van der Rohe Way & Chicago Ave","13338","Streeter Dr & Grand Ave","13022",41.8970646666667,-87.6217903333333,41.892278,-87.612043,"casual"
"EC95B629A760BFE1","electric_bike","2022-07-03 19:08:37","2022-07-03 19:24:12","California Ave & North Ave","13258","","",41.910423,-87.6971585,41.92,-87.71,"casual"
"06ACD806AE40CEBA","electric_bike","2022-07-09 23:17:39","2022-07-09 23:26:38","Public Rack - California Ave & Cortez St","512","N Damen Ave & W Chicago Ave","20255.0",41.9,-87.7,41.9,-87.68,"casual"
"886802F957CEFDB2","electric_bike","2022-07-26 09:52:20","2022-07-26 09:52:39","Columbus Dr & Randolph St","13263","Columbus Dr & Randolph St","13263",41.8848365,-87.619715,41.884728,-87.619521,"member"
"44D73A0DD8CD5E84","classic_bike","2022-07-09 19:03:34","2022-07-09 19:21:28","Racine Ave & Fullerton Ave","TA1306000026","Broadway & Cornelia Ave","13278",41.92556258,-87.65840426,41.945529,-87.646439,"casual"
"DEB1E688B248787C","classic_bike","2022-07-22 20:53:24","2022-07-22 21:23:42","New St & Illinois St","TA1306000013","Larrabee St & Webster Ave","13193",41.8908470406238,-87.6186168193817,41.921822,-87.64414,"member"
"376AA93225C1FA44","classic_bike","2022-07-05 19:28:03","2022-07-05 19:50:13","Burnham Harbor","15545","Wabash Ave & Roosevelt Rd","TA1305000002",41.857411787074,-87.6137915253639,41.867227,-87.625961,"member"
"D20ED97B0DEAD7EC","electric_bike","2022-07-26 21:04:56","2022-07-26 21:15:01","Clifton Ave & Armitage Ave","TA1307000163","Wilton Ave & Belmont Ave","TA1307000134",41.9182713333333,-87.6569871666667,41.94018,-87.65304,"casual"
"DA6E95E7CF6A1EFC","classic_bike","2022-07-10 21:53:26","2022-07-10 21:54:48","Franklin St & Illinois St","RN-","Orleans St & Hubbard St","636",41.8910233102519,-87.6354798674583,41.890028,-87.636618,"casual"
"6A851F5AE9C3D54F","electric_bike","2022-07-05 20:52:28","2022-07-05 21:16:36","","","Eastlake Ter & Rogers Ave","523",42.04,-87.7,42.0208872805206,-87.6650579273701,"member"
"17EDE76F4ED85288","classic_bike","2022-07-23 15:15:19","2022-07-23 15:27:39","Theater on the Lake","TA1308000001","Halsted St & Dickens Ave","13192",41.926277,-87.630834,41.919936,-87.64883,"casual"
"2C4B7B4AC8543665","docked_bike","2022-07-21 16:09:04","2022-07-21 16:28:41","Clinton St & Lake St","13021","State St & Randolph St","TA1305000029",41.885637,-87.641823,41.884621,-87.627834,"casual"
"200A5323EB7CEA70","classic_bike","2022-07-28 05:41:37","2022-07-28 05:48:30","Larrabee St & Oak St","KA1504000116","Rush St & Superior St","15530",41.90021949323,-87.6429854676,41.89576474564,-87.6259080327,"member"
"1902017E7F1DDDE9","electric_bike","2022-07-21 17:28:24","2022-07-21 17:37:53","","","","",41.91,-87.68,41.93,-87.69,"member"
"255BB21864DF30E8","electric_bike","2022-07-19 21:13:19","2022-07-19 21:56:10","Lincoln Park Conservatory","LP-","","",41.9241298333333,-87.6358601666667,41.91,-87.62,"casual"
"C14957915EDDE28B","electric_bike","2022-07-24 17:14:37","2022-07-24 17:21:08","Sheffield Ave & Kingsbury St","13154","Larrabee St & Division St","KA1504000079",41.9105916666667,-87.6531105,41.90348607004,-87.6433534936,"member"
"AC33C614EB87D18A","classic_bike","2022-07-21 14:14:07","2022-07-21 14:23:12","900 W Harrison St","13028","Racine Ave & Washington Blvd","654",41.874754,-87.649807,41.883073,-87.656952,"casual"
"B3D15FEB21479A5B","electric_bike","2022-07-26 17:38:16","2022-07-26 17:51:47","","","","",41.92,-87.65,41.94,-87.65,"casual"
"CC6D0299E6C4A3D7","classic_bike","2022-07-07 18:38:40","2022-07-07 19:05:51","DuSable Lake Shore Dr & Wellington Ave","TA1307000041","Broadway & Barry Ave","13137",41.9366884494997,-87.6368290185928,41.9375823160063,-87.6440978050232,"casual"
"A689066A6CFB36D8","classic_bike","2022-07-19 19:10:47","2022-07-19 19:16:20","Wells St & Walton St","TA1306000011","Wells St & Evergreen Ave","TA1308000049",41.89993001,-87.63443007,41.906724,-87.63483,"casual"
"954B37D9A848BBF6","classic_bike","2022-07-27 17:22:40","2022-07-27 17:28:37","Larrabee St & North Ave","TA1306000008","Sheffield Ave & Webster Ave","TA1309000033",41.91021,-87.6435,41.92154,-87.653818,"member"
"3DA0AC10EBCAE6D6","electric_bike","2022-07-03 17:53:22","2022-07-03 17:53:37","","","","",41.87,-87.66,41.87,-87.66,"member"
"46393411ADAF6D80","classic_bike","2022-07-06 06:38:20","2022-07-06 06:41:17","Kingsbury St & Erie St","13265","Kingsbury St & Kinzie St","KA1503000043",41.8938080562436,-87.6416972279549,41.88917683258,-87.6385057718,"member"
"2856D8B9DFBB9303","electric_bike","2022-07-07 20:15:09","2022-07-07 20:35:06","Dayton St & North Ave","13058","Halsted St & Roscoe St","TA1309000025",41.9105905,-87.6494573333333,41.94367,-87.64895,"casual"
"34DEFB7151C3FA47","classic_bike","2022-07-23 18:12:26","2022-07-23 18:18:27","Broadway & Barry Ave","13137","Broadway & Cornelia Ave","13278",41.9375823160063,-87.6440978050232,41.945529,-87.646439,"casual"
"237F0F09ED5136D5","electric_bike","2022-07-19 12:34:46","2022-07-19 12:46:43","","","","",41.86,-87.62,41.86,-87.61,"casual"
"9561A93EC325F73E","electric_bike","2022-07-05 18:39:08","2022-07-05 18:43:52","Financial Pl & Ida B Wells Dr","SL-010","Canal St & Taylor St","15550",41.8750633333333,-87.6330695,41.870257,-87.639474,"member"
"CE6B7856D16F73BA","electric_bike","2022-07-12 16:34:10","2022-07-12 16:41:35","Ashland Ave & Division St","13061","Walsh Park","18067",41.903273,-87.6679263333333,41.91461,-87.667968,"casual"
"3E02ADA2508ADBDF","classic_bike","2022-07-14 18:03:59","2022-07-14 18:08:40","Clark St & Wrightwood Ave","TA1305000014","Wilton Ave & Diversey Pkwy","TA1306000014",41.929546,-87.643118,41.932418,-87.652705,"member"
"4A8415DC1A208CD1","electric_bike","2022-07-28 13:49:20","2022-07-28 14:05:05","","","","",42.01,-87.66,41.98,-87.66,"member"
"0111CF578DAC9122","electric_bike","2022-07-08 21:14:32","2022-07-08 22:22:31","Southport Ave & Belmont Ave","13229","Cityfront Plaza Dr & Pioneer Ct","13427",41.9393603333333,-87.6638331666667,41.890573,-87.622072,"casual"
"538CD21B6933137A","electric_bike","2022-07-04 14:47:05","2022-07-04 15:03:13","","","","",41.89,-87.61,41.9,-87.62,"casual"
"D6AD6C61F5439730","electric_bike","2022-07-10 08:27:18","2022-07-10 08:30:37","Wabash Ave & Adams St","KA1503000015","Canal St & Adams St","13011",41.8795765,-87.6257405,41.879255,-87.639904,"casual"
"38743141FB45617C","electric_bike","2022-07-28 19:26:57","2022-07-28 19:44:42","Loomis St & Lexington St","13332","Daley Center Plaza","TA1306000010",41.8722025,-87.66153,41.884241,-87.629634,"member"
"DE239BEBC985523E","electric_bike","2022-07-28 16:57:24","2022-07-28 17:12:46","Halsted St & 35th St","TA1308000043","Clinton St & Madison St","TA1305000032",41.8306815,-87.6471438333333,41.882242,-87.641066,"member"
"FE6465F35D330B42","electric_bike","2022-07-30 10:43:26","2022-07-30 11:12:27","Burnham Harbor","15545","Halsted St & 35th St","TA1308000043",41.8575898333333,-87.6138605,41.830661,-87.647172,"member"
"32F79B8F84DB1D85","classic_bike","2022-07-22 14:14:01","2022-07-22 14:19:40","California Ave & Fletcher St","15642","Troy St & Elston Ave","15631",41.93842879148,-87.698007756,41.94524356848,-87.7066499009,"member"
"0D8E86A5F658CD2D","classic_bike","2022-07-11 08:11:29","2022-07-11 08:23:42","Buckingham Fountain (Temp)","15541","Michigan Ave & Madison St","13036",41.8696207474812,-87.6239812374115,41.882134,-87.625125,"member"
"DC96C86354BE9251","electric_bike","2022-07-25 11:26:40","2022-07-25 11:29:46","State St & 33rd St","13216","Calumet Ave & 33rd St","13217",41.834756,-87.625835,41.8349,-87.61793,"member"
"6B5FCFD02B96E77F","electric_bike","2022-07-29 20:39:55","2022-07-29 20:44:55","Clark St & Winnemac Ave","TA1309000035","","",41.973351,-87.6677601666667,41.98,-87.67,"casual"
"20E033F600CAEFA3","classic_bike","2022-07-10 17:54:12","2022-07-10 18:01:31","Eckhart Park","13289","Damen Ave & Grand Ave","TA1308000006",41.89637337,-87.66098386,41.8923944529627,-87.6768851280212,"member"
"3D86D5E099CC9BA0","classic_bike","2022-07-26 21:46:11","2022-07-26 21:53:09","Clark St & North Ave","13128","Sedgwick St & Webster Ave","13191",41.911974,-87.631942,41.922167,-87.638888,"member"
"418992A1B9EC617A","electric_bike","2022-07-17 13:54:08","2022-07-17 14:06:40","","","Clark St & North Ave","13128",41.89,-87.61,41.911974,-87.631942,"member"
"1BB1F806F05023CE","electric_bike","2022-07-27 17:40:34","2022-07-27 17:48:02","St. Clair St & Erie St","13016","Wabash Ave & Adams St","KA1503000015",41.8940983333333,-87.6226941666667,41.87947235235,-87.6256886059,"member"
"52E82708355E1F37","electric_bike","2022-07-17 22:38:14","2022-07-17 22:50:34","Ogden Ave & Chicago Ave","TA1305000020","Stave St & Armitage Ave","13266",41.896379,-87.6540395,41.917741,-87.691392,"member"
"F74A19CC2DEDF790","electric_bike","2022-07-28 10:42:11","2022-07-28 11:07:32","","","","",41.94,-87.64,41.93,-87.71,"member"
"367C28267A895368","classic_bike","2022-07-07 18:05:41","2022-07-07 18:21:02","Larrabee St & Armitage Ave","TA1309000006","Sedgwick St & North Ave","TA1307000038",41.918084,-87.643749,41.911386,-87.638677,"casual"
"95D6E2B460CEC9EC","classic_bike","2022-07-30 13:09:12","2022-07-30 13:23:10","Wells St & Hubbard St","TA1307000151","Michigan Ave & Pearson St","13034",41.889906,-87.634266,41.89766,-87.62351,"member"
"7FDBE6ED509DD8EC","classic_bike","2022-07-30 14:25:30","2022-07-30 14:48:56","Clark St & Leland Ave","TA1309000014","DuSable Lake Shore Dr & Wellington Ave","TA1307000041",41.967096,-87.667429,41.9366884494997,-87.6368290185928,"casual"
"2AE89227B3751016","electric_bike","2022-07-03 18:02:48","2022-07-03 18:15:17","Lakefront Trail & Bryn Mawr Ave","15576","","",41.9840131666667,-87.6522378333333,41.95,-87.65,"casual"
"0A450FEC8FD092CA","classic_bike","2022-07-21 12:48:30","2022-07-21 13:06:58","Broadway & Argyle St","13108","Broadway & Argyle St","13108",41.973815,-87.65966,41.973815,-87.65966,"member"
"C74F24BF321219AB","electric_bike","2022-07-04 11:36:33","2022-07-04 11:45:11","Kimbark Ave & 53rd St","TA1309000037","","",41.7995898333333,-87.5946976666667,41.82,-87.6,"casual"
"E205245C3C9F865A","docked_bike","2022-07-06 19:51:46","2022-07-06 21:43:49","Rush St & Cedar St","KA1504000133","Rush St & Cedar St","KA1504000133",41.902309,-87.627691,41.902309,-87.627691,"casual"
"CE1F2C6CE36BB160","classic_bike","2022-07-03 15:47:44","2022-07-03 15:55:53","Theater on the Lake","TA1308000001","Stockton Dr & Wrightwood Ave","13276",41.926277,-87.630834,41.93132,-87.638742,"casual"
"38741CBD1E25DA24","electric_bike","2022-07-15 15:23:45","2022-07-15 15:44:38","","","Halsted St & Wrightwood Ave","TA1309000061",41.96,-87.71,41.929143,-87.649077,"casual"
"CA2BB1B97C7E7588","classic_bike","2022-07-25 15:23:30","2022-07-25 15:30:13","Walsh Park","18067","Sheffield Ave & Kingsbury St","13154",41.91461,-87.667968,41.910522,-87.653106,"member"
"DB275279D4910DBD","classic_bike","2022-07-16 17:49:03","2022-07-16 18:07:18","Halsted St & Willow St","TA1307000166","Sangamon St & Washington Blvd","13409",41.913865,-87.648755,41.883165,-87.6511,"casual"
"38357AE4A8DD4BF2","electric_bike","2022-07-29 12:18:46","2022-07-29 12:26:14","Pulaski Rd & 44th St","833","Christiana Ave & Archer Ave","832",41.81,-87.72,41.81,-87.71,"member"
"E294285BDF65EDCA","electric_bike","2022-07-06 08:43:57","2022-07-06 09:06:46","Racine Ave & Wrightwood Ave","TA1309000059","","",41.9288613333333,-87.6590858333333,41.93,-87.65,"casual"
"F633DCDBC7B4A85C","classic_bike","2022-07-08 19:40:22","2022-07-08 19:43:43","Rhodes Ave & 32nd St","13215","Rhodes Ave & 32nd St","13215",41.836208,-87.613533,41.836208,-87.613533,"member"
"D6E0271ACD8A7DA4","electric_bike","2022-07-12 18:44:45","2022-07-12 18:53:45","DuSable Lake Shore Dr & North Blvd","LF-005","Ritchie Ct & Banks St","KA1504000134",41.9116631666667,-87.6268335,41.906866,-87.626217,"casual"
"59373A6599D63DAD","electric_bike","2022-07-26 15:36:13","2022-07-26 15:43:38","900 W Harrison St","13028","Clinton St & 18th St","TA1307000044",41.874788,-87.6497455,41.85795,-87.640826,"casual"
"93C605BC35F317BE","classic_bike","2022-07-13 18:37:34","2022-07-13 19:05:47","Lake Park Ave & 53rd St","KA1503000059","Wentworth Ave & 33rd St","15445",41.79949429373,-87.5864498959,41.83452988563,-87.6318229814,"member"
"12882F3406502DF7","electric_bike","2022-07-22 12:35:28","2022-07-22 13:12:50","","","Kedzie Ave & Milwaukee Ave","13085",41.9,-87.7,41.929567,-87.707857,"casual"
"7A1659D730B5F785","classic_bike","2022-07-18 14:23:37","2022-07-18 15:45:56","Shore Dr & 55th St","TA1308000009","Ellis Ave & 58th St","TA1309000011",41.795212,-87.580715,41.788746,-87.601334,"casual"
"AB703A61B1D6212E","electric_bike","2022-07-27 17:15:03","2022-07-27 17:15:50","Clinton St & Jackson Blvd","638","Canal St & Adams St","13011",41.8783396666667,-87.6413778333333,41.879255,-87.639904,"member"
"224A46C7F11D9052","classic_bike","2022-07-31 13:39:14","2022-07-31 13:53:17","Desplaines St & Kinzie St","TA1306000003","Federal St & Polk St","SL-008",41.888716036,-87.6444478533,41.87207763285,-87.6295437729,"casual"
"7D39D478909BC3F6","electric_bike","2022-07-23 02:24:04","2022-07-23 02:27:37","","","","",41.96,-87.68,41.96,-87.68,"member"
"33D6AB261C5E1C7F","electric_bike","2022-07-12 18:37:51","2022-07-12 18:45:38","Kedzie Ave & 48th Pl","382","Kedzie Ave & 58th St","775",41.8,-87.7,41.79,-87.7,"casual"
"EA882991AD77837D","classic_bike","2022-07-14 06:56:30","2022-07-14 07:07:55","Clinton St & Madison St","TA1305000032","Wells St & 19th St","SL-006",41.882242,-87.641066,41.856802,-87.633879,"member"
"91333F7CF2AE9CD5","classic_bike","2022-07-27 07:29:04","2022-07-27 07:45:32","Halsted St & Wrightwood Ave","TA1309000061","Green St & Randolph St*","chargingstx3",41.929143,-87.649077,41.8836016572752,-87.6486267149448,"member"
"4030F85E092E709E","electric_bike","2022-07-16 16:15:35","2022-07-16 16:35:01","","","","",41.96,-87.7,41.96,-87.64,"member"
"28DD3262CFE32F30","classic_bike","2022-07-20 15:31:09","2022-07-20 15:36:41","California Ave & 26th St","15692","California Ave & 21st St","13096",41.8436799145765,-87.6949685811996,41.8538040657915,-87.6957423985004,"member"
"1C342B8B1D8673DE","classic_bike","2022-07-03 17:04:12","2022-07-03 18:03:45","Ashland Ave & Grace St","13319","Michigan Ave & Oak St","13042",41.950687,-87.6687,41.90096039,-87.62377664,"casual"
"19B3AA951438E93B","classic_bike","2022-07-01 09:07:01","2022-07-01 09:12:30","Kimbark Ave & 53rd St","TA1309000037","University Ave & 57th St","KA1503000071",41.799568,-87.594747,41.791478,-87.599861,"member"
"7A5B86F13F67ED10","electric_bike","2022-07-31 12:52:04","2022-07-31 13:20:25","Millennium Park","13008","","",41.8811911666667,-87.6240948333333,41.89,-87.62,"casual"
"BAB946C69B6DE67B","electric_bike","2022-07-26 17:13:36","2022-07-26 17:54:03","Desplaines St & Kinzie St","TA1306000003","","",41.888541,-87.6441021666667,41.82,-87.62,"casual"
"A557C2BC78A36FBD","electric_bike","2022-07-01 17:28:10","2022-07-01 17:29:50","Theater on the Lake","TA1308000001","Theater on the Lake","TA1308000001",41.926254,-87.6309748333333,41.926277,-87.630834,"casual"
"86602484E2CBFDBB","classic_bike","2022-07-07 14:13:06","2022-07-07 14:35:15","Southport Ave & Irving Park Rd","TA1309000043","Sheffield Ave & Kingsbury St","13154",41.954177,-87.664358,41.910522,-87.653106,"member"
"9E3CA3F04EDF7CB6","classic_bike","2022-07-04 11:24:41","2022-07-04 11:37:14","Loomis St & Jackson Blvd","13206","Elizabeth (May) St & Fulton St","13197",41.877945,-87.662007,41.8866164860277,-87.6580399274826,"member"
"2A936596E989D846","electric_bike","2022-07-01 15:04:44","2022-07-01 15:07:30","","","","",41.79,-87.59,41.79,-87.6,"member"
"31431106AE404681","classic_bike","2022-07-25 20:12:31","2022-07-25 20:15:32","Mies van der Rohe Way & Chicago Ave","13338","State St & Chicago Ave","21544",41.8969446263708,-87.6217576861382,41.8966172004075,-87.628578543663,"member"
"739B8905E0D015BB","electric_bike","2022-07-19 20:42:00","2022-07-19 20:54:29","Montrose Harbor","TA1308000012","Sheffield Ave & Waveland Ave","TA1307000126",41.9639176666667,-87.6381566666667,41.949399,-87.654529,"casual"
"64193B19A6C8C5D7","electric_bike","2022-07-12 00:06:01","2022-07-12 00:10:24","","","Troy St & North Ave","15653",41.9,-87.7,41.90976930169,-87.7052804871,"member"
"4DDA0EA2C96403FA","classic_bike","2022-07-04 05:15:34","2022-07-04 05:35:09","Broadway & Waveland Ave","13325","Southport Ave & Waveland Ave","13235",41.949074,-87.648636,41.94815,-87.66394,"casual"
"3D1A8E3C2B6B7E67","electric_bike","2022-07-05 07:49:02","2022-07-05 07:57:27","Racine Ave & Washington Blvd","654","Franklin St & Jackson Blvd","TA1305000025",41.8830608333333,-87.6570515,41.8777079559,-87.6353211408,"casual"
"FC11F6E31E6DFE82","classic_bike","2022-07-25 21:44:05","2022-07-25 22:28:59","Wabash Ave & Wacker Pl","TA1307000131","Paulina St & Montrose Ave","TA1309000021",41.886875,-87.62603,41.961507,-87.671387,"member"
"E478C9A47FF067BA","classic_bike","2022-07-08 17:45:22","2022-07-08 18:08:43","Franklin St & Illinois St","RN-","Larrabee St & Webster Ave","13193",41.8910233102519,-87.6354798674583,41.921822,-87.64414,"member"
"5879F6DD4E737CC3","classic_bike","2022-07-03 13:43:17","2022-07-03 14:31:24","Burnham Harbor","15545","Halsted St & Clybourn Ave","331",41.857411787074,-87.6137915253639,41.909668,-87.648128,"member"
"1A413F0C92C16F9E","classic_bike","2022-07-18 20:38:38","2022-07-18 20:59:11","Sheridan Rd & Greenleaf Ave","KA1504000159","Sheridan Rd & Greenleaf Ave","KA1504000159",42.01058656284,-87.6624120948,42.01058656284,-87.6624120948,"casual"
"A0C381CE01172213","electric_bike","2022-07-04 19:26:46","2022-07-04 20:18:53","Lincoln Ave & Belle Plaine Ave","TA1309000026","","",41.956019,-87.6802378333333,41.96,-87.68,"casual"
"26C36F4D065862BB","classic_bike","2022-07-22 15:12:43","2022-07-22 15:28:35","Calumet Ave & 18th St","13102","State St & Randolph St","TA1305000029",41.857611,-87.619407,41.8846210725794,-87.6278342306614,"member"
"81D61B027D62B1A5","classic_bike","2022-07-02 09:01:46","2022-07-02 09:31:16","Sheridan Rd & Noyes St (NU)","604","Glenwood Ave & Morse Ave","KA1504000175",42.058239,-87.677432,42.00797192287,-87.6655023944,"member"
"6B4C727C40668ABF","electric_bike","2022-07-06 12:39:10","2022-07-06 12:50:58","","","Clinton St & Madison St","TA1305000032",41.87,-87.63,41.882242,-87.641066,"casual"
"64BFB3D88DF5AC72","classic_bike","2022-07-18 18:01:58","2022-07-18 18:17:55","Theater on the Lake","TA1308000001","Montrose Harbor","TA1308000012",41.926277,-87.630834,41.963982,-87.638181,"member"
"259CE6195CFEE29A","classic_bike","2022-07-19 09:40:43","2022-07-19 09:47:21","Carpenter St & Huron St","13196","Clinton St & Lake St","13021",41.894556,-87.653449,41.885637,-87.641823,"member"
"CA5005DC412C3C48","electric_bike","2022-07-28 11:00:45","2022-07-28 11:01:33","","","","",41.99,-87.65,41.99,-87.65,"casual"
"96F40102A6CB7563","electric_bike","2022-07-20 13:46:58","2022-07-20 13:53:28","","","Clybourn Ave & Division St","TA1307000115",41.9,-87.67,41.904613,-87.640552,"member"
"BC5A607A584B9876","electric_bike","2022-07-17 13:42:07","2022-07-17 13:43:47","Michigan Ave & 8th St","623","Michigan Ave & Ida B Wells Dr","TA1305000010",41.8726358333333,-87.6241548333333,41.876243,-87.624426,"member"
"1433A9A4DDC4BD1D","classic_bike","2022-07-04 14:38:00","2022-07-04 15:01:59","Michigan Ave & Oak St","13042","DuSable Lake Shore Dr & Wellington Ave","TA1307000041",41.90096039,-87.62377664,41.9366884494997,-87.6368290185928,"casual"
"70EF12901B166093","electric_bike","2022-07-03 15:23:44","2022-07-03 16:38:49","","","","",41.99,-87.65,41.89,-87.61,"casual"
"15E811E05A50DC1B","electric_bike","2022-07-17 18:05:36","2022-07-17 18:15:08","","","","",41.86,-87.66,41.84,-87.65,"member"
"139917D261E15A5A","classic_bike","2022-07-09 18:25:58","2022-07-09 18:30:52","Cottage Grove Ave & 43rd St","TA1308000023","Cottage Grove Ave & 43rd St","TA1308000023",41.816499,-87.606582,41.816499,-87.606582,"casual"
"EC0FB46077460E58","docked_bike","2022-07-16 13:05:07","2022-07-16 13:56:19","Streeter Dr & Grand Ave","13022","Streeter Dr & Grand Ave","13022",41.892278,-87.612043,41.892278,-87.612043,"casual"
"A3CD39A2790401DA","electric_bike","2022-07-30 15:05:57","2022-07-30 15:06:10","","","","",41.92,-87.66,41.92,-87.66,"member"
"DB3199FBAF4A3DE1","electric_bike","2022-07-13 17:12:17","2022-07-13 17:18:40","Franklin St & Illinois St","RN-","Clybourn Ave & Division St","TA1307000115",41.8906633333333,-87.6357228333333,41.904613,-87.640552,"member"
"1BEAB54464DF8791","electric_bike","2022-07-24 16:05:21","2022-07-24 16:09:47","Wabash Ave & Roosevelt Rd","TA1305000002","Canal St & Taylor St","15550",41.8671963333333,-87.6260251666667,41.870257,-87.639474,"casual"
"0550078480BBE122","classic_bike","2022-07-31 16:09:35","2022-07-31 16:17:28","Sedgwick St & North Ave","TA1307000038","Halsted St & Clybourn Ave","331",41.911386,-87.638677,41.909668,-87.648128,"casual"
"ED1D9F8EF4D1C57B","classic_bike","2022-07-14 16:50:20","2022-07-14 17:01:19","Wells St & Concord Ln","TA1308000050","Halsted St & Wrightwood Ave","TA1309000061",41.912133,-87.634656,41.929143,-87.649077,"member"
"63D8958AA7560669","electric_bike","2022-07-02 22:03:52","2022-07-02 22:23:43","DuSable Lake Shore Dr & Wellington Ave","TA1307000041","Paulina St & Montrose Ave","TA1309000021",41.9367223333333,-87.6368856666667,41.961507,-87.671387,"casual"
"2390B3290219A7FA","classic_bike","2022-07-30 11:29:11","2022-07-30 11:32:29","Sheridan Rd & Buena Ave","TA1309000027","Sheridan Rd & Irving Park Rd","13063",41.958494,-87.654966,41.954245,-87.654406,"member"
"60193EF99CB329E8","classic_bike","2022-07-10 09:08:15","2022-07-10 09:14:33","Sedgwick St & North Ave","TA1307000038","Larrabee St & Oak St","KA1504000116",41.911386,-87.638677,41.90021949323,-87.6429854676,"member"
"E7348DBFC5B828DF","classic_bike","2022-07-04 18:56:43","2022-07-04 19:13:57","Clark St & Chicago Ave","13303","State St & Harrison St","SL-007",41.89675,-87.63089,41.874053,-87.627716,"casual"
"763B01EB615CFF77","electric_bike","2022-07-05 16:42:46","2022-07-05 17:08:50","","","","",42.01,-87.68,42.01,-87.67,"casual"
"A2A1D04141E46F29","classic_bike","2022-07-02 18:37:47","2022-07-02 18:57:35","Sheridan Rd & Loyola Ave","RP-009","Clark St & Montrose Ave","KA1503000022",42.00104377979,-87.6611982433,41.961588,-87.666036,"member"
"E6A6B19C663A7C56","classic_bike","2022-07-25 17:04:57","2022-07-25 17:19:23","Fairbanks St & Superior St","18003","LaSalle St & Washington St","13006",41.895748,-87.620104,41.882664,-87.63253,"member"
"8607E4BE64EE26F4","electric_bike","2022-07-20 15:28:43","2022-07-20 15:37:46","","","State St & Van Buren St","TA1305000035",41.89,-87.63,41.877181,-87.627844,"member"
"4C5B34CF02EDAA9A","electric_bike","2022-07-10 10:29:02","2022-07-10 10:34:01","Broadway & Barry Ave","13137","Wilton Ave & Belmont Ave","TA1307000134",41.9378501666667,-87.6440868333333,41.94018,-87.65304,"casual"
"6DEA1619358670D8","electric_bike","2022-07-10 21:12:36","2022-07-10 21:22:07","Southport Ave & Roscoe St","13071","Halsted St & Wrightwood Ave","TA1309000061",41.9436548333333,-87.663912,41.929143,-87.649077,"casual"
"4FB50FD75D7AD228","electric_bike","2022-07-04 00:57:28","2022-07-04 01:12:55","Broadway & Cornelia Ave","13278","Racine Ave & Fullerton Ave","TA1306000026",41.9454968333333,-87.6464323333333,41.92556258,-87.65840426,"member"
"95DBC32EDB6E37A0","classic_bike","2022-07-06 19:39:54","2022-07-06 19:41:31","Pine Grove Ave & Waveland Ave","TA1307000150","Broadway & Waveland Ave","13325",41.9494727408833,-87.6464527845383,41.949074,-87.648636,"casual"
"0C3A6E3D15624E02","electric_bike","2022-07-30 14:42:59","2022-07-30 15:10:40","Michigan Ave & Madison St","13036","","",41.8819785,-87.6252106666667,41.85,-87.65,"member"
"BC7B90380F253BDA","electric_bike","2022-07-13 21:02:49","2022-07-13 21:02:58","Western Ave & Winnebago Ave","13068","","",41.9154848333333,-87.6869263333333,41.92,-87.69,"casual"
"8F2EAC67135B5583","classic_bike","2022-07-25 18:49:55","2022-07-25 19:04:59","Damen Ave & Cortland St","13133","Sheffield Ave & Kingsbury St","13154",41.915983,-87.677335,41.910522,-87.653106,"member"
"FA6FF6BCFEE7670C","electric_bike","2022-07-20 17:32:12","2022-07-20 18:23:12","Kimbark Ave & 53rd St","TA1309000037","Kimbark Ave & 53rd St","TA1309000037",41.799552679,-87.59461844,41.799568,-87.594747,"casual"
"D3FDC4CCA6987AE5","classic_bike","2022-07-28 08:37:27","2022-07-28 08:39:30","Canal St & Harrison St","13326","Canal St & Taylor St","15550",41.874255,-87.639573,41.870257,-87.639474,"member"
"96F3DAE226EE627B","electric_bike","2022-07-10 11:39:43","2022-07-10 11:53:53","","","","",41.92,-87.63,41.95,-87.64,"member"
"01A429E836034E77","classic_bike","2022-07-28 06:27:38","2022-07-28 06:36:59","Wells St & Polk St","SL-011","Halsted St & Roosevelt Rd","TA1305000017",41.8727315422631,-87.6335164904594,41.867324,-87.648625,"member"
"DAE3423DA859D477","electric_bike","2022-07-21 17:45:56","2022-07-21 17:52:16","Lakeview Ave & Fullerton Pkwy","TA1309000019","","",41.9259565,-87.6391596666667,41.93,-87.65,"member"
"A63BC99008056A53","electric_bike","2022-07-19 11:05:03","2022-07-19 11:45:00","Lake Park Ave & 53rd St","KA1503000059","","",41.7997528333333,-87.5863318333333,41.79,-87.6,"casual"
"F0A787CF0FD9692F","classic_bike","2022-07-31 16:30:53","2022-07-31 16:59:27","Broadway & Ridge Ave","15578","Clark St & Newport St","632",41.9840446107,-87.6602738295,41.94454,-87.654678,"member"
"CC4DAE35AEB0BDAF","electric_bike","2022-07-02 16:55:34","2022-07-02 17:02:11","Clybourn Ave & Division St","TA1307000115","Halsted St & Willow St","TA1307000166",41.9044598333333,-87.6406446666667,41.913865,-87.648755,"casual"
"B2CBCEA6638646A5","electric_bike","2022-07-01 11:11:21","2022-07-01 12:03:33","Millennium Park","13008","Fairbanks Ct & Grand Ave","TA1305000003",41.8812466666667,-87.6241286666667,41.8918473721099,-87.6205801963806,"casual"
"4011F80D4536A802","classic_bike","2022-07-01 21:26:01","2022-07-01 21:36:56","California Ave & Milwaukee Ave","13084","Wood St & Milwaukee Ave","13221",41.922695,-87.697153,41.907655,-87.672552,"casual"
"F5890CB800D24C36","classic_bike","2022-07-23 19:57:57","2022-07-23 20:08:57","Morgan St & 31st St","TA1308000046","Wentworth Ave & Cermak Rd","13075",41.8378,-87.65114,41.8530845574128,-87.6319313049316,"member"
"A2AE3CF5EADEA594","classic_bike","2022-07-19 19:39:11","2022-07-19 19:47:51","Wells St & Huron St","TA1306000012","State St & Pearson St","TA1307000061",41.894722,-87.634362,41.897448,-87.628722,"member"
"89BFD20C4850747D","electric_bike","2022-07-28 05:37:41","2022-07-28 05:44:06","Stetson Ave & South Water St","TA1308000029","Franklin St & Adams St (Temp)","TA1309000008",41.8866135,-87.6219763333333,41.8794340914001,-87.6355040073395,"member"
"1E4AC749FF844C93","electric_bike","2022-07-23 10:18:56","2022-07-23 10:19:45","Winchester (Ravenswood) Ave & Balmoral Ave","KA1504000147","Winchester (Ravenswood) Ave & Balmoral Ave","KA1504000147",41.9797511666667,-87.6775983333333,41.979762,-87.67753,"member"
"BD6A5A3E6AD32B6A","electric_bike","2022-07-25 19:06:17","2022-07-25 19:10:35","Southport Ave & Roscoe St","13071","Racine Ave & Belmont Ave","TA1308000019",41.9437225,-87.6639125,41.939743,-87.658865,"casual"
"E67250BB33FC5C85","classic_bike","2022-07-08 15:46:29","2022-07-08 16:07:27","Daley Center Plaza","TA1306000010","Clark St & Schiller St","TA1309000024",41.884241,-87.629634,41.907993,-87.631501,"casual"
"4B40816739791AED","electric_bike","2022-07-07 15:57:50","2022-07-07 15:59:22","Morgan St & Lake St","TA1306000015","","",41.8858693333333,-87.6510778333333,41.89,-87.65,"member"
"5EEA998CD47F1741","electric_bike","2022-07-26 16:16:53","2022-07-26 17:05:49","Harper Ave & 59th St","KA1503000070","Pine Grove Ave & Waveland Ave","TA1307000150",41.7877735,-87.5886158333333,41.9494727408833,-87.6464527845383,"member"
"6DC06BB56E7264CB","classic_bike","2022-07-16 14:11:55","2022-07-16 14:30:57","DuSable Lake Shore Dr & North Blvd","LF-005","DuSable Lake Shore Dr & Diversey Pkwy","TA1309000039",41.911722,-87.626804,41.932588,-87.636427,"member"
"4A33624DC75DF836","docked_bike","2022-07-28 09:29:01","2022-07-28 09:51:27","Michigan Ave & Ida B Wells Dr","TA1305000010","Millennium Park","13008",41.876243,-87.624426,41.881032,-87.624084,"casual"
"A25869083F0F99DA","classic_bike","2022-07-31 11:43:40","2022-07-31 12:16:00","Sedgwick St & Webster Ave","13191","DuSable Lake Shore Dr & Monroe St","13300",41.922167,-87.638888,41.880958,-87.616743,"casual"
"D0809285DDF3070E","classic_bike","2022-07-30 09:57:06","2022-07-30 10:47:40","Leavitt St & Addison St","KA1504000143","Clark St & Lincoln Ave","13179",41.946655,-87.683359,41.915689,-87.6346,"casual"
"39B886D3061D43D3","electric_bike","2022-07-16 17:24:17","2022-07-16 17:55:49","","","","",41.94,-87.68,41.97,-87.65,"casual"
"DE92E8D5D39ED054","electric_bike","2022-07-28 02:57:07","2022-07-28 03:14:32","Western Ave & Winnebago Ave","13068","","",41.915546894,-87.687123418,41.9,-87.68,"member"
"282474D8A6FA4379","docked_bike","2022-07-23 11:04:08","2022-07-23 11:12:41","Burnham Harbor","15545","Burnham Harbor","15545",41.857412,-87.613792,41.857412,-87.613792,"casual"
"86C19D4C72FEAD0B","docked_bike","2022-07-01 20:57:55","2022-07-01 21:09:58","Leavitt St & Belmont Ave","KA17018068","Southport Ave & Roscoe St","13071",41.939354,-87.683282,41.943739,-87.66402,"casual"
"A00F7937EB248948","classic_bike","2022-07-01 18:19:56","2022-07-01 18:32:59","DuSable Lake Shore Dr & North Blvd","LF-005","Streeter Dr & Grand Ave","13022",41.911722,-87.626804,41.892278,-87.612043,"casual"
"6429C271A5E9DF93","docked_bike","2022-07-30 02:49:07","2022-07-30 02:53:29","Lincoln Ave & Fullerton Ave","TA1309000058","Clark St & Wrightwood Ave","TA1305000014",41.924161,-87.64638,41.929546,-87.643118,"casual"
"506C58326C63017C","electric_bike","2022-07-29 15:10:37","2022-07-29 15:21:57","Damen Ave & Chicago Ave","13132","Green St & Randolph St*","chargingstx3",41.8955451666667,-87.6770755,41.8836016572752,-87.6486267149448,"member"
"7E49B5DF78886AB7","classic_bike","2022-07-25 07:22:14","2022-07-25 07:37:10","Wells St & Huron St","TA1306000012","Michigan Ave & Ida B Wells Dr","TA1305000010",41.894722,-87.634362,41.876243,-87.624426,"casual"
"097ADABB8D23F77E","electric_bike","2022-07-15 20:08:48","2022-07-15 20:19:19","Elston Ave & Cortland St","TA1305000039","Wells St & Elm St","KA1504000135",41.9164348333333,-87.6668328333333,41.903222,-87.634324,"member"
"39FD0D0D1D22F98D","classic_bike","2022-07-29 20:35:34","2022-07-29 20:54:04","State St & 35th St","TA1307000129","Wabash Ave & 9th St","TA1309000010",41.8310363140161,-87.6267975568771,41.870769,-87.625734,"casual"
"21B84479950A8919","classic_bike","2022-07-27 14:21:11","2022-07-27 14:46:05","Sangamon St & Washington Blvd","13409","Ada St & Washington Blvd","13353",41.883165,-87.6511,41.88283,-87.661206,"member"
"8C3870BF061FFE9A","classic_bike","2022-07-03 12:40:16","2022-07-03 13:17:56","Damen Ave & Pierce Ave","TA1305000041","Leavitt St & North Ave","TA1308000005",41.9093960065,-87.6776919292,41.910509366664,-87.6823890209198,"member"
"45B369EE631FF9B8","classic_bike","2022-07-04 16:40:38","2022-07-04 16:44:57","Columbus Dr & Randolph St","13263","State St & Randolph St","TA1305000029",41.884728,-87.619521,41.8846210725794,-87.6278342306614,"member"
"BEF2F0FA00F22580","electric_bike","2022-07-13 06:19:53","2022-07-13 06:30:16","State St & Chicago Ave","21544","Desplaines St & Jackson Blvd","15539",41.896793,-87.628562,41.8781189009123,-87.6439476013184,"casual"
"BFD1046DF998CF20","classic_bike","2022-07-26 18:23:31","2022-07-26 18:49:05","Ada St & Washington Blvd","13353","California Ave & Milwaukee Ave","13084",41.88283,-87.661206,41.922695,-87.697153,"casual"
"553984EECD407A0F","classic_bike","2022-07-30 16:34:36","2022-07-30 17:37:29","Museum of Science and Industry","KA1503000074","Museum of Science and Industry","KA1503000074",41.79172820953,-87.583945009,41.79172820953,-87.583945009,"casual"
"BA8BFBF5AC51ED99","electric_bike","2022-07-20 16:04:55","2022-07-20 16:16:46","Halsted St & Polk St","TA1307000121","Laflin St & Cullerton St","13307",41.8718116666667,-87.6466838333333,41.8549145757657,-87.6635599136353,"member"
"0B47FF293395D557","electric_bike","2022-07-15 20:01:09","2022-07-15 20:15:27","Clark St & Schiller St","TA1309000024","","",41.9081548333333,-87.6314775,41.93,-87.66,"member"
"B32E70B59F9046D1","electric_bike","2022-07-10 09:12:28","2022-07-10 09:19:18","Talman Ave & Addison St","15632","Troy St & Elston Ave","15631",41.9466251666667,-87.694633,41.94524356848,-87.7066499009,"casual"
"34F3BFB95E15828E","classic_bike","2022-07-28 08:47:33","2022-07-28 08:50:28","Columbus Dr & Randolph St","13263","Millennium Park","13008",41.884728,-87.619521,41.8810317,-87.62408432,"member"
"4C38E3EAAF0E9803","electric_bike","2022-07-14 15:32:21","2022-07-14 15:36:23","","","Canal St & Madison St","13341",41.88,-87.63,41.882091,-87.639833,"member"
"2EC1BF5485828334","electric_bike","2022-07-25 20:24:57","2022-07-25 20:31:58","Wilton Ave & Belmont Ave","TA1307000134","","",41.9400895,-87.6529563333333,41.93,-87.64,"casual"
"5319A19AC2026FC4","classic_bike","2022-07-23 10:37:41","2022-07-23 10:46:11","Sheffield Ave & Fullerton Ave","TA1306000016","Larrabee St & Armitage Ave","TA1309000006",41.9256018819,-87.6537080423,41.918084,-87.643749,"member"
"F5C454DBC32EF3B9","classic_bike","2022-07-13 21:38:11","2022-07-13 21:47:50","Clark St & Montrose Ave","KA1503000022","Leavitt St & Lawrence Ave","TA1309000015",41.961588,-87.666036,41.968885,-87.684001,"member"
"CB3EE8FC5BD7296E","electric_bike","2022-07-02 08:49:52","2022-07-02 08:58:13","Milwaukee Ave & Wabansia Ave","13243","Kedzie Ave & Milwaukee Ave","13085",41.9126011666667,-87.6814455,41.929567,-87.707857,"member"
"BBD16163B3576B29","classic_bike","2022-07-23 14:23:14","2022-07-23 14:40:27","Broadway & Waveland Ave","13325","Lakefront Trail & Bryn Mawr Ave","15576",41.949074,-87.648636,41.9840441151921,-87.6522812247276,"member"
"33DBC2D82F729533","electric_bike","2022-07-16 09:55:48","2022-07-16 10:03:30","Wabash Ave & 9th St","TA1309000010","Canal St & Madison St","13341",41.8703471666667,-87.62531,41.882091,-87.639833,"member"
"5A444FC3B8675CAA","electric_bike","2022-07-31 15:54:07","2022-07-31 16:03:43","California Ave & Francis Pl (Temp)","13259","Western Ave & Roscoe St","15634",41.91849792,-87.697472572,41.943034,-87.687288,"member"
"5731F101F424DFEE","classic_bike","2022-07-16 13:36:22","2022-07-16 13:52:48","Elston Ave & Cortland St","TA1305000039","Damen Ave & Division St","13136",41.9164334291265,-87.6667463779449,41.903266,-87.678435,"casual"
"E4CF2E460591D9C0","electric_bike","2022-07-12 19:23:30","2022-07-12 19:32:45","","","63rd St Beach","15491",41.79,-87.58,41.780910964248,-87.5763237476349,"member"
"2B0893052DD42956","classic_bike","2022-07-01 18:59:57","2022-07-01 19:04:20","Streeter Dr & Grand Ave","13022","Dusable Harbor","KA1503000064",41.892278,-87.612043,41.886976,-87.612813,"member"
"E80E1698D3D7B276","classic_bike","2022-07-15 19:34:39","2022-07-15 19:50:32","Milwaukee Ave & Grand Ave","13033","Sheffield Ave & Willow St","TA1306000032",41.891578,-87.648384,41.913688,-87.652855,"member"
"85918AFA673C5BB8","classic_bike","2022-07-07 06:48:07","2022-07-07 07:00:30","Kimbark Ave & 53rd St","TA1309000037","Ellis Ave & 55th St","KA1504000076",41.799568,-87.594747,41.79430062054,-87.6014497734,"member"
"8D48ACCC0A51A3B4","electric_bike","2022-07-29 16:55:12","2022-07-29 17:02:30","Clark St & Randolph St","TA1305000030","Canal St & Jackson Blvd","13138",41.884469509,-87.631825566,41.877245,-87.639366,"casual"
"9CCF1ABA18F54124","electric_bike","2022-07-26 12:28:24","2022-07-26 13:18:36","Mies van der Rohe Way & Chicago Ave","13338","University Ave & 57th St","KA1503000071",41.8969346666667,-87.621811,41.791478,-87.599861,"casual"
"EE8505F41D9120A2","classic_bike","2022-07-18 11:09:17","2022-07-18 11:20:06","Clark St & Leland Ave","TA1309000014","Pine Grove Ave & Waveland Ave","TA1307000150",41.967096,-87.667429,41.9494727408833,-87.6464527845383,"member"
"AEE62B009DB60B46","classic_bike","2022-07-03 11:26:47","2022-07-03 11:45:42","Ashland Ave & Wrightwood Ave","13296","Lincoln Park Conservatory","LP-",41.92883,-87.668507,41.9239313113662,-87.6358245313168,"casual"
"3F27512165288E80","classic_bike","2022-07-02 18:21:40","2022-07-02 18:40:30","Sheridan Rd & Buena Ave","TA1309000027","Seeley Ave & Roscoe St","13144",41.958494,-87.654966,41.943403,-87.679618,"casual"
"0064F4A5B1205305","classic_bike","2022-07-20 19:52:06","2022-07-20 19:56:18","Michigan Ave & 8th St","623","Michigan Ave & 8th St","623",41.872773,-87.623981,41.872773,-87.623981,"casual"
"0A4AB3BECD1DB6C1","electric_bike","2022-07-08 16:21:41","2022-07-08 16:32:12","","","","",41.9,-87.77,41.9,-87.77,"casual"
"2A7B28EBAD6CDC1B","electric_bike","2022-07-01 20:19:11","2022-07-01 20:33:18","Western Ave & Winnebago Ave","13068","","",41.9155993333333,-87.6871228333333,41.92,-87.64,"member"
"ED9AF737C3D71336","electric_bike","2022-07-23 22:09:05","2022-07-23 22:14:43","","","Southport Ave & Wellington Ave","TA1307000006",41.94,-87.66,41.935733,-87.663576,"casual"
"44494C49772C8154","electric_bike","2022-07-15 04:12:32","2022-07-15 05:03:38","","","","",41.88,-87.67,41.79,-87.63,"casual"
"3CFAFFE83BB769BD","docked_bike","2022-07-24 08:51:32","2022-07-24 08:57:42","State St & Randolph St","TA1305000029","Michigan Ave & Washington St","13001",41.884621,-87.627834,41.883984,-87.624684,"casual"
"D460722CD38C4D1B","classic_bike","2022-07-05 19:24:10","2022-07-05 19:34:12","Damen Ave & Division St","13136","Ashland Ave & Grand Ave","13434",41.903266,-87.678435,41.891072,-87.666611,"member"
"B1553FFDC55CA512","classic_bike","2022-07-26 22:08:04","2022-07-26 22:21:56","Shore Dr & 55th St","TA1308000009","Woodlawn Ave & Lake Park Ave","KA1503000065",41.795212,-87.580715,41.81409271048,-87.5970051479,"member"
"EAC7C86BDCD89A67","electric_bike","2022-07-20 12:43:22","2022-07-20 13:12:28","Mies van der Rohe Way & Chicago Ave","13338","Shedd Aquarium","15544",41.896952033,-87.621762037,41.86722595682,-87.6153553902,"member"
"BCD9308F5457C56E","classic_bike","2022-07-21 19:55:24","2022-07-21 19:58:19","Lincoln Ave & Belle Plaine Ave","TA1309000026","Oakley Ave & Irving Park Rd","KA1504000158",41.9560035507855,-87.6801614463329,41.95434085219,-87.6860796243,"member"
"4EC45E1763EDFC79","docked_bike","2022-07-13 09:53:13","2022-07-13 10:05:32","California Ave & 26th St","15692","Damen Ave & Cullerton St","13089",41.84368,-87.694969,41.854967,-87.6757,"casual"
"A649869ED9DB18BF","electric_bike","2022-07-17 00:33:04","2022-07-17 00:56:22","Western Ave & Winnebago Ave","13068","Racine Ave & Belmont Ave","TA1308000019",41.9156096666667,-87.687085,41.939743,-87.658865,"casual"
"6543E34CF86A0D5A","classic_bike","2022-07-31 19:34:26","2022-07-31 20:32:18","Western Ave & Winnebago Ave","13068","Milwaukee Ave & Wabansia Ave","13243",41.91552,-87.687022,41.912616,-87.681391,"casual"
"A2A7F2B2B9BA1760","docked_bike","2022-07-16 22:42:04","2022-07-17 14:10:32","Damen Ave & Cortland St","13133","Racine Ave & Belmont Ave","TA1308000019",41.915983,-87.677335,41.939743,-87.658865,"casual"
"C4F023773F236471","classic_bike","2022-07-22 01:05:08","2022-07-22 02:00:50","Clark St & Ida B Wells Dr","TA1305000009","Dearborn St & Van Buren St","624",41.8759326655,-87.6305845355,41.876268,-87.629155,"casual"
"8DAE2C9DB25775AA","classic_bike","2022-07-14 12:57:04","2022-07-14 13:00:31","Wells St & Walton St","TA1306000011","Clark St & Elm St","TA1307000039",41.89993001,-87.63443007,41.902973,-87.63128,"member"
"D61D54D263AB0EFF","classic_bike","2022-07-27 05:46:45","2022-07-27 05:48:37","Desplaines St & Kinzie St","TA1306000003","Kingsbury St & Kinzie St","KA1503000043",41.888716036,-87.6444478533,41.88917683258,-87.6385057718,"member"
"2A3F75D9050478AD","classic_bike","2022-07-20 08:41:53","2022-07-20 08:58:37","Morgan St & Polk St","TA1307000130","Ashland Ave & Lake St","13073",41.871737,-87.65103,41.88592,-87.66717,"member"
"B7243DAE6C82FA7A","electric_bike","2022-07-02 11:40:17","2022-07-02 11:59:35","Wells St & Elm St","KA1504000135","N Green St & W Lake St","20246.0",41.9030693333333,-87.6346981666667,41.89,-87.65,"casual"
"9A33D9680E75899F","classic_bike","2022-07-24 15:45:15","2022-07-24 15:55:00","Halsted St & Clybourn Ave","331","Lincoln Ave & Fullerton Ave","TA1309000058",41.909668,-87.648128,41.9241610290676,-87.6463803648949,"casual"
"26ACCF6E4BDEF317","classic_bike","2022-07-18 19:15:50","2022-07-18 19:48:25","Streeter Dr & Grand Ave","13022","Michigan Ave & Oak St","13042",41.892278,-87.612043,41.90096039,-87.62377664,"member"
"CAD09DB0011633F9","docked_bike","2022-07-31 18:30:28","2022-07-31 19:02:06","DuSable Lake Shore Dr & North Blvd","LF-005","Canal St & Adams St","13011",41.911722,-87.626804,41.879255,-87.639904,"casual"
"3F60C84F2639CAD8","docked_bike","2022-07-03 13:32:51","2022-07-03 15:31:49","Lakeview Ave & Fullerton Pkwy","TA1309000019","Lakeview Ave & Fullerton Pkwy","TA1309000019",41.925858,-87.638973,41.925858,-87.638973,"casual"
"85A77E78F2B1D729","classic_bike","2022-07-25 15:21:03","2022-07-25 15:24:37","Clark St & Bryn Mawr Ave","KA1504000151","Clark St & Berwyn Ave","KA1504000146",41.983593,-87.669154,41.9780306224866,-87.668564915657,"member"
"D63F7EC81B043778","classic_bike","2022-07-14 15:38:22","2022-07-14 15:44:47","Ellis Ave & 58th St","TA1309000011","Ellis Ave & 53rd St","KA1503000052",41.788746,-87.601334,41.79933626261,-87.6009581145,"casual"
"7FE184D0158FE30B","classic_bike","2022-07-29 10:15:18","2022-07-29 10:20:21","DuSable Lake Shore Dr & Wellington Ave","TA1307000041","Sheffield Ave & Wellington Ave","TA1307000052",41.9366884494997,-87.6368290185928,41.9362534831413,-87.6526620984077,"member"
"B0824FB76D3B3715","electric_bike","2022-07-02 16:51:45","2022-07-02 17:12:41","Michigan Ave & Oak St","13042","Wabash Ave & Grand Ave","TA1307000117",41.9012041666667,-87.6234543333333,41.891466,-87.626761,"casual"
"B22E5EBA43B544D9","classic_bike","2022-07-21 13:08:53","2022-07-21 13:13:52","State St & Kinzie St","13050","Clark St & Randolph St","TA1305000030",41.8893754666317,-87.6270765066147,41.884576228,-87.63188991,"member"
"6D8834F55EE2D8DA","classic_bike","2022-07-22 10:00:00","2022-07-22 10:11:12","Sheffield Ave & Wrightwood Ave","TA1309000023","Sheffield Ave & Waveland Ave","TA1307000126",41.928712,-87.653833,41.949399,-87.654529,"member"
"1F9BF61A1A16A86D","electric_bike","2022-07-05 17:14:37","2022-07-05 17:42:10","Public Rack - Kenton Ave & Palmer St","516","","",41.92,-87.74,41.93,-87.81,"casual"
"B82C574E6F5E0322","classic_bike","2022-07-29 15:47:05","2022-07-29 15:55:51","Clark St & Wellington Ave","TA1307000136","Theater on the Lake","TA1308000001",41.9364968219,-87.6475386582,41.926277,-87.630834,"member"
"0C9C37B358A2A23C","electric_bike","2022-07-03 15:47:31","2022-07-03 15:59:51","Racine Ave & 18th St","13164","","",41.858238459,-87.656511307,41.87,-87.69,"member"
"193E3882F8FD34AD","electric_bike","2022-07-08 13:37:45","2022-07-08 13:52:47","Wabash Ave & Grand Ave","TA1307000117","Michigan Ave & Jackson Blvd","TA1309000002",41.8913621666667,-87.6269088333333,41.87785,-87.62408,"casual"
"3266EB6B37C6C344","electric_bike","2022-07-11 16:20:14","2022-07-11 16:24:20","","","Ellis Ave & 55th St","KA1504000076",41.79,-87.6,41.79430062054,-87.6014497734,"casual"
"911803A3BF17A74B","electric_bike","2022-07-07 15:38:14","2022-07-07 15:48:01","","","","",41.73,-87.55,41.71,-87.54,"casual"
"E7072B32829CF091","classic_bike","2022-07-26 20:18:19","2022-07-26 20:30:48","State St & Harrison St","SL-007","Kingsbury St & Kinzie St","KA1503000043",41.874053,-87.627716,41.88917683258,-87.6385057718,"casual"
"0E112EA60D1192BE","electric_bike","2022-07-20 19:47:07","2022-07-20 19:49:09","Sedgwick St & Huron St","TA1307000062","","",41.8946523333333,-87.638264,41.9,-87.64,"member"
"50E691FF2DF77A70","electric_bike","2022-07-03 21:53:13","2022-07-03 22:03:48","","","","",41.95,-87.65,41.94,-87.65,"casual"
"2506E7A09C505A3C","electric_bike","2022-07-03 11:48:38","2022-07-03 12:05:05","Desplaines St & Kinzie St","TA1306000003","DuSable Lake Shore Dr & North Blvd","LF-005",41.8885126666667,-87.6444215,41.911722,-87.626804,"member"
"98468CB0EEFD42F6","classic_bike","2022-07-03 13:28:13","2022-07-03 13:34:46","Burling St & Diversey Pkwy","TA1309000036","Clark St & Newport St","632",41.93314,-87.64776,41.94454,-87.654678,"casual"
"51FF97CC921519FC","electric_bike","2022-07-13 15:25:11","2022-07-13 15:43:25","Morgan St & Lake St","TA1306000015","Halsted St & 37th St","TA1307000161",41.8858438333333,-87.6511251666667,41.827059,-87.64572,"casual"
"50F941DBC4F57D47","electric_bike","2022-07-25 05:47:12","2022-07-25 06:00:34","DuSable Lake Shore Dr & North Blvd","LF-005","Wacker Dr & Washington St","KA1503000072",41.911746,-87.6268023333333,41.8831433643902,-87.6372420787811,"member"
"E26F3B5E41A78A32","docked_bike","2022-07-21 21:17:35","2022-07-21 22:40:53","MLK Jr Dr & 29th St","TA1307000139","MLK Jr Dr & 29th St","TA1307000139",41.842052,-87.617,41.842052,-87.617,"casual"
"0E194C82D9BF02C4","docked_bike","2022-07-22 23:01:34","2022-07-23 00:20:00","Wabash Ave & Grand Ave","TA1307000117","Wabash Ave & Grand Ave","TA1307000117",41.891466,-87.626761,41.891466,-87.626761,"casual"
"EA9DE72414F94D23","electric_bike","2022-07-13 07:41:49","2022-07-13 08:13:38","Broadway & Thorndale Ave","15575","Millennium Park","13008",41.9897321666667,-87.6601555,41.8810317,-87.62408432,"member"
"7634430FF052D8F8","electric_bike","2022-07-06 16:38:51","2022-07-06 16:50:26","Paulina St & Montrose Ave","TA1309000021","Sheridan Rd & Lawrence Ave","TA1309000041",41.9615368333333,-87.6714496666667,41.969517,-87.654691,"casual"
"944969997D7500A0","docked_bike","2022-07-04 22:03:55","2022-07-04 22:59:14","Michigan Ave & Oak St","13042","Sheridan Rd & Montrose Ave","TA1307000107",41.90096,-87.623777,41.96167,-87.65464,"casual"
"1D30DDB227F976D3","classic_bike","2022-07-29 16:12:24","2022-07-29 16:46:24","University Library (NU)","605","Sheridan Rd & Columbia Ave","660",42.052939,-87.673447,42.004583,-87.661406,"member"
"DDFF34DB55C6A752","classic_bike","2022-07-05 19:10:06","2022-07-05 19:15:16","Rush St & Superior St","15530","Michigan Ave & Lake St","TA1305000011",41.89576474564,-87.6259080327,41.886024,-87.624117,"member"
"18EA98DE26B9B5AD","electric_bike","2022-07-08 18:55:31","2022-07-08 19:01:42","","","","",41.88,-87.63,41.88,-87.63,"casual"
"3D77730133D28CB1","classic_bike","2022-07-22 10:04:32","2022-07-22 10:06:32","Racine Ave & Fullerton Ave","TA1306000026","Sheffield Ave & Fullerton Ave","TA1306000016",41.92556258,-87.65840426,41.9256018819,-87.6537080423,"member"
"C7355B8CDD1177D2","docked_bike","2022-07-06 13:03:04","2022-07-06 13:34:52","Lincoln Park Conservatory","LP-","DuSable Lake Shore Dr & Monroe St","13300",41.923931,-87.635825,41.880958,-87.616743,"casual"
"73438B898FEDF7E5","classic_bike","2022-07-03 19:28:07","2022-07-03 19:37:10","Shore Dr & 55th St","TA1308000009","Kimbark Ave & 53rd St","TA1309000037",41.795212,-87.580715,41.799568,-87.594747,"casual"
"5B6FDA22D511279D","electric_bike","2022-07-09 15:58:25","2022-07-09 17:03:36","Orleans St & Merchandise Mart Plaza","TA1305000022","","",41.8877703333333,-87.6369518333333,41.89,-87.61,"casual"
"13E7DBEA3B4F7F11","classic_bike","2022-07-04 23:09:31","2022-07-04 23:18:12","Broadway & Waveland Ave","13325","Clark St & Drummond Pl","TA1307000142",41.949074,-87.648636,41.931248,-87.644336,"casual"
"DCC73ADEEFB8AA1B","classic_bike","2022-07-11 17:29:31","2022-07-11 17:57:44","Aberdeen St & Randolph St","18062","Spaulding Ave & Armitage Ave","15650",41.884114,-87.654264,41.9171080347893,-87.7102209627628,"member"
"D3C4E82895BB5D04","electric_bike","2022-07-11 17:12:49","2022-07-11 17:27:29","Halsted St & Willow St","TA1307000166","","",41.9138503333333,-87.6487615,41.9,-87.63,"member"
"31CC48D25B517EBA","electric_bike","2022-07-09 10:17:51","2022-07-09 10:29:27","Damen Ave & Charleston St","13288","Logan Blvd & Elston Ave","TA1308000031",41.9201995,-87.6779421666667,41.929465,-87.684158,"casual"
"0B7D09A914BF35B3","electric_bike","2022-07-08 15:35:02","2022-07-08 16:57:06","Dearborn St & Monroe St","TA1305000006","Ashland Ave & Augusta Blvd","13248",41.8807091666667,-87.6296316666667,41.899643,-87.6677,"casual"
"BB3F2579BE3D82F9","classic_bike","2022-07-02 23:47:11","2022-07-03 00:01:44","Dearborn St & Van Buren St","624","Normal Ave & Archer Ave","TA1308000014",41.876268,-87.629155,41.849527,-87.640591,"member"
"91279EC56929F27D","classic_bike","2022-07-04 13:33:20","2022-07-04 13:47:28","Streeter Dr & Grand Ave","13022","DuSable Lake Shore Dr & Monroe St","13300",41.892278,-87.612043,41.880958,-87.616743,"casual"
"28DFD74D59E1E937","classic_bike","2022-07-31 16:07:33","2022-07-31 17:19:49","Clark St & Lincoln Ave","13179","South Shore Dr & 67th St","KA1503000029",41.915689,-87.6346,41.773643,-87.567514,"casual"
"936AA2CC569FF068","electric_bike","2022-07-02 15:51:08","2022-07-02 16:01:11","","","","",41.99,-87.67,41.98,-87.65,"casual"
"AE446BB7B119B03F","classic_bike","2022-07-03 23:53:03","2022-07-04 00:17:55","Greenview Ave & Fullerton Ave","TA1307000001","Southport Ave & Irving Park Rd","TA1309000043",41.92533,-87.6658,41.954177,-87.664358,"member"
"631C63F9D210E956","classic_bike","2022-07-02 23:15:15","2022-07-02 23:18:58","MLK Jr Dr & Pershing Rd","13420","Prairie Ave & 43rd St","KA1503000027",41.8246,-87.61678,41.81665889302,-87.6194124619,"casual"
"C1CB24847EBF5055","electric_bike","2022-07-29 20:39:35","2022-07-29 20:40:26","Bissell St & Armitage Ave*","chargingstx1","Bissell St & Armitage Ave*","chargingstx1",41.918556809,-87.652224064,41.9182955629354,-87.6521833240986,"member"
"6A3B3008E93E9A74","electric_bike","2022-07-26 17:45:12","2022-07-26 18:09:42","Halsted St & Willow St","TA1307000166","","",41.9137731666667,-87.6488911666667,41.92,-87.66,"casual"
"994630543AD14A5D","electric_bike","2022-07-22 22:18:21","2022-07-22 22:23:46","Peoria St & Jackson Blvd","13158","Peoria St & Jackson Blvd","13158",41.877522826,-87.649650097,41.8776415962753,-87.6496177911758,"casual"
"412F450D11548FC5","electric_bike","2022-07-16 22:20:27","2022-07-16 22:32:45","","","Public Rack - Chopin Park","542",41.94,-87.72,41.94,-87.76,"member"
"85F750935ACBF88B","docked_bike","2022-07-04 14:01:46","2022-07-04 15:16:46","Adler Planetarium","13431","Shedd Aquarium","15544",41.866095,-87.607267,41.867226,-87.615355,"casual"
"3BF326C92CAF8A89","electric_bike","2022-07-13 11:52:54","2022-07-13 13:33:32","","","Ellis Ave & 53rd St","KA1503000052",41.8,-87.59,41.79933626261,-87.6009581145,"member"
"32966F9AC6E5725A","electric_bike","2022-07-05 18:41:45","2022-07-05 18:47:48","Fairbanks Ct & Grand Ave","TA1305000003","Kingsbury St & Kinzie St","KA1503000043",41.8921935,-87.620388,41.88917683258,-87.6385057718,"member"
"56C368E57076197E","electric_bike","2022-07-25 15:19:37","2022-07-25 15:22:34","Broadway & Barry Ave","13137","DuSable Lake Shore Dr & Wellington Ave","TA1307000041",41.937656,-87.6441301666667,41.9366884494997,-87.6368290185928,"casual"
"32E7AC6E813E210D","electric_bike","2022-07-30 19:51:52","2022-07-30 20:05:50","","","Western Ave & Howard St","527",42.01,-87.71,42.018901,-87.690048,"casual"
"2525F6E55691550F","electric_bike","2022-07-02 11:50:00","2022-07-02 11:51:14","","","","",41.92,-87.63,41.92,-87.63,"casual"
"FAA8EB36A1866B69","electric_bike","2022-07-10 13:40:58","2022-07-10 13:51:37","N Green St & W Lake St","20246.0","","",41.89,-87.65,41.9,-87.63,"casual"
"8D8D6AE2003444DB","classic_bike","2022-07-11 20:00:33","2022-07-11 20:21:21","Desplaines St & Jackson Blvd","15539","Damen Ave & Cullerton St","13089",41.8781189009123,-87.6439476013184,41.8549665187539,-87.6756995916366,"member"
"A749ED437C5DB553","electric_bike","2022-07-26 21:55:54","2022-07-26 22:01:50","Calumet Ave & 18th St","13102","Wabash Ave & Roosevelt Rd","TA1305000002",41.8576833333333,-87.6195518333333,41.867227,-87.625961,"member"
"16789DFC5273E861","electric_bike","2022-07-06 17:05:35","2022-07-06 17:27:00","","","Clark St & Berwyn Ave","KA1504000146",41.96,-87.71,41.9780306224866,-87.668564915657,"casual"
"B4B91F386056649A","classic_bike","2022-07-24 09:54:44","2022-07-24 10:01:52","Halsted St & Clybourn Ave","331","Larrabee St & Webster Ave","13193",41.909668,-87.648128,41.921822,-87.64414,"casual"
"0609572F7A4654CB","electric_bike","2022-07-30 21:30:25","2022-07-30 21:37:10","Kedzie Ave & George St","436","","",41.93,-87.71,41.94,-87.72,"casual"
"D9F214F51F91F367","electric_bike","2022-07-16 08:49:55","2022-07-16 08:52:05","Michigan Ave & 14th St","TA1307000124","","",41.8642565,-87.6235995,41.87,-87.62,"member"
"457CD7D5B27BA374","electric_bike","2022-07-13 06:52:55","2022-07-13 07:09:53","Lakefront Trail & Bryn Mawr Ave","15576","Western Ave & Howard St","527",41.984023,-87.6524088333333,42.018901,-87.690048,"member"
"3063C713F77501AD","classic_bike","2022-07-28 15:43:42","2022-07-28 16:13:39","Sangamon St & Washington Blvd","13409","Clark St & Lincoln Ave","13179",41.883165,-87.6511,41.915689,-87.6346,"casual"
"E742FD40CF26969E","classic_bike","2022-07-18 18:23:09","2022-07-18 18:38:25","Sheffield Ave & Webster Ave","TA1309000033","Wells St & Walton St","TA1306000011",41.92154,-87.653818,41.89993001,-87.63443007,"member"
"8CDA3F789AA8CFF6","classic_bike","2022-07-07 07:54:06","2022-07-07 08:02:39","Michigan Ave & Washington St","13001","Indiana Ave & Roosevelt Rd","SL-005",41.8839840647265,-87.6246839761734,41.867888,-87.623041,"member"
"214549D62D358AC8","electric_bike","2022-07-27 13:55:56","2022-07-27 14:00:32","","","","",41.9,-87.71,41.9,-87.7,"member"
"1EFF1536B3AC08CD","electric_bike","2022-07-05 11:18:43","2022-07-05 11:19:39","Field Museum","13029","Field Museum","13029",41.8652895,-87.6182276666667,41.865312,-87.617867,"casual"
"B88BF8F4CAC3278F","electric_bike","2022-07-01 15:20:47","2022-07-01 15:26:15","Western Ave & Gunnison St","445","Manor Ave & Leland Ave","KA1504000127",41.97,-87.69,41.965875,-87.700825,"casual"
"11552A44D6364919","classic_bike","2022-07-01 06:21:00","2022-07-01 06:23:08","LaSalle St & Washington St","13006","Dearborn St & Monroe St","TA1305000006",41.882664,-87.63253,41.881319815,-87.6295209193,"member"
"A6231E511A1BF524","classic_bike","2022-07-14 22:18:32","2022-07-14 22:28:54","Leavitt St & Addison St","KA1504000143","Troy St & Elston Ave","15631",41.946655,-87.683359,41.94524356848,-87.7066499009,"member"
"C93027E2851AF118","classic_bike","2022-07-03 17:00:49","2022-07-03 17:26:21","DuSable Lake Shore Dr & North Blvd","LF-005","Pine Grove Ave & Waveland Ave","TA1307000150",41.911722,-87.626804,41.9494727408833,-87.6464527845383,"casual"
"3C7A2463A1950A17","classic_bike","2022-07-01 06:04:19","2022-07-01 06:14:31","Lakefront Trail & Bryn Mawr Ave","15576","Montrose Harbor","TA1308000012",41.9840441151921,-87.6522812247276,41.963982,-87.638181,"member"
"9C8D4A1A0B1BB1C1","electric_bike","2022-07-27 20:45:59","2022-07-27 20:54:27","Clark St & Schiller St","TA1309000024","Larrabee St & Webster Ave","13193",41.908008099,-87.631518602,41.921822,-87.64414,"member"
"C64C21CD0082D2C8","classic_bike","2022-07-07 18:20:35","2022-07-07 18:21:01","Broadway & Sheridan Rd","13323","Broadway & Sheridan Rd","13323",41.952833,-87.649993,41.952833,-87.649993,"casual"
"C056751D22DB78C8","electric_bike","2022-07-02 13:53:27","2022-07-02 14:49:48","Calumet Ave & 51st St","15470","","",41.8022581666667,-87.6180503333333,41.76,-87.65,"casual"
"635F66521593E428","electric_bike","2022-07-06 17:42:27","2022-07-06 17:55:50","","","Spaulding Ave & Armitage Ave","15650",41.91,-87.67,41.9171080347893,-87.7102209627628,"member"
"AEF1EC87EAEB61F6","electric_bike","2022-07-16 16:29:42","2022-07-16 16:33:18","Clark St & Touhy Ave","RP-007","Paulina St & Howard St","515",42.0124783333333,-87.674209,42.019159,-87.673573,"member"
"CFA812AC193BD450","electric_bike","2022-07-26 18:44:44","2022-07-26 19:05:54","Rockwell St & Fletcher St","435","Clark St & Lincoln Ave","13179",41.94,-87.69,41.915689,-87.6346,"casual"
"087E4DD17637DA46","electric_bike","2022-07-29 10:48:25","2022-07-29 11:00:44","","","","",41.94,-87.67,41.96,-87.7,"member"
"630C244F691D8E7B","classic_bike","2022-07-04 22:29:35","2022-07-04 22:33:43","Wilton Ave & Diversey Pkwy","TA1306000014","Halsted St & Wrightwood Ave","TA1309000061",41.932418,-87.652705,41.929143,-87.649077,"casual"
"1757A7D5466543C2","docked_bike","2022-07-16 03:34:46","2022-07-16 03:39:42","Central Ave & Chicago Ave","16920","Latrobe Ave & Chicago Ave","642",41.894958,-87.764902,41.894745,-87.756895,"casual"
"DCEE0C487236875D","electric_bike","2022-07-21 06:56:35","2022-07-21 06:59:06","Franklin St & Lake St","TA1307000111","Canal St & Madison St","13341",41.8851165,-87.6343226666667,41.882091,-87.639833,"member"
"5A594052810D2870","electric_bike","2022-07-23 14:53:20","2022-07-23 15:28:24","Blue Island Ave & 18th St","13135","Orleans St & Hubbard St","636",41.8574871666667,-87.6615718333333,41.890028,-87.636618,"casual"
"A23961C28BA93632","classic_bike","2022-07-02 22:00:22","2022-07-02 22:07:13","Clark St & Wrightwood Ave","TA1305000014","Clark St & Armitage Ave","13146",41.929546,-87.643118,41.918306,-87.636282,"casual"
"4378EBDC3DF3193F","classic_bike","2022-07-09 12:55:31","2022-07-09 13:27:59","Streeter Dr & Grand Ave","13022","Lakeview Ave & Fullerton Pkwy","TA1309000019",41.892278,-87.612043,41.925858,-87.638973,"casual"
"81A241031A4C4925","classic_bike","2022-07-31 16:05:39","2022-07-31 16:17:59","Halsted St & Clybourn Ave","331","Wells St & Hubbard St","TA1307000151",41.909668,-87.648128,41.889906,-87.634266,"member"
"137E632913F540D6","electric_bike","2022-07-30 18:11:43","2022-07-30 18:35:57","","","","",41.86,-87.62,41.89,-87.62,"casual"
"59A8A8EF715CCDCE","electric_bike","2022-07-20 20:40:06","2022-07-20 20:41:53","Sedgwick St & North Ave","TA1307000038","","",41.9113796666667,-87.6387023333333,41.92,-87.64,"member"
"0FB396A0CCB49B4D","classic_bike","2022-07-01 19:29:34","2022-07-01 19:45:19","California Ave & Cortez St","17660","Richmond St & Diversey Ave","15645",41.900363,-87.696704,41.93190196886,-87.7011951301,"casual"
"585F4B0691E1163C","electric_bike","2022-07-09 01:07:39","2022-07-09 01:11:55","","","","",41.93,-87.65,41.93,-87.64,"casual"
"2105A6DC5B72E4D2","classic_bike","2022-07-10 17:03:31","2022-07-10 17:18:16","Clark St & Wrightwood Ave","TA1305000014","Lincoln Ave & Roscoe St*","chargingstx5",41.929546,-87.643118,41.9433502470174,-87.6706677675247,"casual"
"9734A4E4C96A6996","electric_bike","2022-07-28 02:09:24","2022-07-28 02:23:43","Clark St & Lake St","KA1503000012","","",41.8857221666667,-87.6313093333333,41.87,-87.62,"casual"
"5E562203BB224238","electric_bike","2022-07-01 16:12:21","2022-07-01 16:17:38","","","Broadway & Barry Ave","13137",41.94,-87.65,41.9375823160063,-87.6440978050232,"member"
"34921BFC10B32EF4","classic_bike","2022-07-29 20:27:15","2022-07-29 20:38:40","Rockwell St & Eastwood Ave","KA1504000093","Clark St & Leland Ave","TA1309000014",41.96590013976,-87.6936384935,41.967096,-87.667429,"member"
"5A56C08A3808E17A","electric_bike","2022-07-21 16:09:12","2022-07-21 16:12:59","Broadway & Wilson - Truman College Vaccination Site","13074","Broadway & Berwyn Ave","13109",41.965224,-87.6583105,41.978353,-87.659753,"member"
"5809950F956CA408","classic_bike","2022-07-17 13:13:43","2022-07-17 13:33:50","Kedzie Ave & Milwaukee Ave","13085","Leavitt St & North Ave","TA1308000005",41.929567,-87.707857,41.910509366664,-87.6823890209198,"casual"
"49EE532CD4DCD41F","classic_bike","2022-07-17 15:18:14","2022-07-17 16:14:41","Sheffield Ave & Willow St","TA1306000032","Lakeview Ave & Fullerton Pkwy","TA1309000019",41.913688,-87.652855,41.925858,-87.638973,"casual"
"261D5096C6F6FFD6","classic_bike","2022-07-29 13:56:44","2022-07-29 14:03:04","New St & Illinois St","TA1306000013","LaSalle St & Illinois St","13430",41.8908470406238,-87.6186168193817,41.890762,-87.631697,"casual"
"21160F5392AFEC79","classic_bike","2022-07-09 11:35:56","2022-07-09 12:02:44","Racine Ave & Washington Blvd","654","DuSable Lake Shore Dr & Monroe St","13300",41.883073,-87.656952,41.880958,-87.616743,"casual"
"1C3EB0842A3E17F8","electric_bike","2022-07-29 18:09:14","2022-07-29 18:13:40","","","Greenview Ave & Jarvis Ave","520",42.02,-87.67,42.015962,-87.66857,"casual"
"3C1D3EAFA02F11B4","classic_bike","2022-07-13 07:38:58","2022-07-13 07:47:32","Sedgwick St & Huron St","TA1307000062","St. Clair St & Erie St","13016",41.894666,-87.638437,41.8943451374243,-87.6227983832359,"member"
"54D0009E02537C17","classic_bike","2022-07-04 16:33:23","2022-07-04 16:57:15","Clarendon Ave & Junior Ter","13389","Sawyer Ave & Irving Park Rd","KA1504000096",41.961004,-87.649603,41.95358617895,-87.7093107999,"member"
"FC493C73459C895D","classic_bike","2022-07-14 17:16:24","2022-07-14 17:23:49","Eckhart Park","13289","Racine Ave & Washington Blvd","654",41.89637337,-87.66098386,41.883073,-87.656952,"member"
"12011F7AF1B54047","classic_bike","2022-07-03 10:33:24","2022-07-03 10:57:36","Theater on the Lake","TA1308000001","Shedd Aquarium","15544",41.926277,-87.630834,41.86722595682,-87.6153553902,"member"
"0A14D6BFBBEBF716","docked_bike","2022-07-29 22:55:10","2022-07-29 23:48:49","Broadway & Sheridan Rd","13323","Broadway & Sheridan Rd","13323",41.952833,-87.649993,41.952833,-87.649993,"casual"
"93B5965F56EA1365","electric_bike","2022-07-29 14:00:40","2022-07-29 14:21:08","","","Paulina Ave & North Ave","TA1305000037",41.94,-87.64,41.9098546521673,-87.6699301600456,"member"
"F663D74F8DCDE5DA","classic_bike","2022-07-29 17:00:28","2022-07-29 17:13:21","Sangamon St & Lake St","TA1306000015","Rush St & Hubbard St","KA1503000044",41.8857792524043,-87.6510246098041,41.890173,-87.626185,"member"
"03E6CC5C5254FE06","classic_bike","2022-07-30 14:13:42","2022-07-30 15:00:09","Clark St & Berwyn Ave","KA1504000146","Lincoln Park Conservatory","LP-",41.9780306224866,-87.668564915657,41.9239313113662,-87.6358245313168,"member"
"ED0461EDF8CCA7F3","electric_bike","2022-07-24 17:15:13","2022-07-24 17:28:27","Bissell St & Armitage Ave*","chargingstx1","Orleans St & Chestnut St (NEXT Apts)","620",41.9185053333333,-87.6523011666667,41.898203,-87.637536,"casual"
"0C6312B59F2E44E9","classic_bike","2022-07-10 08:30:06","2022-07-10 08:34:39","Glenwood Ave & Morse Ave","KA1504000175","Sheridan Rd & Loyola Ave","RP-009",42.00797192287,-87.6655023944,42.00104377979,-87.6611982433,"member"
"920B338FE073377E","classic_bike","2022-07-27 22:57:51","2022-07-27 23:10:56","Lincoln Ave & Addison St","TA1309000050","Western Ave & Leland Ave","TA1307000140",41.946176,-87.673308,41.966399801841,-87.6887042820454,"casual"
"72FBFC1133A6E69E","electric_bike","2022-07-07 20:41:44","2022-07-07 20:49:43","Halsted St & Clybourn Ave","331","Clark St & Elm St","TA1307000039",41.9096483333333,-87.6481453333333,41.902973,-87.63128,"member"
"AC79AA440894D3B7","classic_bike","2022-07-12 13:15:18","2022-07-12 13:18:50","Halsted St & Polk St","TA1307000121","Halsted St & Maxwell St","TA1309000001",41.87184,-87.64664,41.864883,-87.647071,"member"
"CCE10A3EEB3FA24C","classic_bike","2022-07-30 19:05:41","2022-07-30 20:32:16","DuSable Lake Shore Dr & Monroe St","13300","Mies van der Rohe Way & Chicago Ave","13338",41.880958,-87.616743,41.8969446263708,-87.6217576861382,"casual"
"E1FCF8FE1CF8C77A","classic_bike","2022-07-22 15:16:25","2022-07-22 15:22:24","Clark St & Berwyn Ave","KA1504000146","Clark St & Leland Ave","TA1309000014",41.9780306224866,-87.668564915657,41.967096,-87.667429,"casual"
"B3A631B0BA866B50","electric_bike","2022-07-09 14:36:38","2022-07-09 14:47:29","Southport Ave & Roscoe St","13071","Clark St & Wrightwood Ave","TA1305000014",41.9436336666667,-87.663975,41.929546,-87.643118,"casual"
"239E6FC23891C688","electric_bike","2022-07-16 19:33:57","2022-07-16 21:14:24","Clinton St & Madison St","TA1305000032","Desplaines St & Kinzie St","TA1306000003",41.88190186,-87.641160131,41.888716036,-87.6444478533,"casual"
"C946B0150D5E38BC","classic_bike","2022-07-03 15:13:01","2022-07-03 15:31:58","Dearborn Pkwy & Delaware Pl","TA1307000128","Clark St & Chicago Ave","13303",41.898969,-87.629912,41.89675,-87.63089,"member"
"1ED4877C35AC73CD","electric_bike","2022-07-14 10:20:03","2022-07-14 10:25:18","","","","",41.92,-87.72,41.92,-87.72,"casual"
"CD41FD580AF08316","electric_bike","2022-07-14 11:27:45","2022-07-14 11:31:46","","","Delano Ct & Roosevelt Rd","KA1706005007",41.87,-87.63,41.867491,-87.63219,"member"
"4216E3E783C9A7CF","electric_bike","2022-07-21 13:32:00","2022-07-21 13:33:52","Wells St & Polk St","SL-011","Franklin St & Jackson Blvd","TA1305000025",41.8726786666667,-87.6339033333333,41.8777079559,-87.6353211408,"member"
"287722124166FB24","electric_bike","2022-07-05 17:30:54","2022-07-05 17:34:24","Clark St & Elmdale Ave","KA1504000148","Clark St & Bryn Mawr Ave","KA1504000151",41.990849,-87.6696993333333,41.983593,-87.669154,"member"
"529D1230A9F5DAC4","classic_bike","2022-07-30 08:20:04","2022-07-30 08:46:14","Lincoln Ave & Belle Plaine Ave","TA1309000026","DuSable Lake Shore Dr & Wellington Ave","TA1307000041",41.9560035507855,-87.6801614463329,41.9366884494997,-87.6368290185928,"casual"
"49659C5E6BDC5A89","classic_bike","2022-07-29 10:23:41","2022-07-29 10:36:13","Carpenter St & Huron St","13196","Dearborn St & Erie St","13045",41.894556,-87.653449,41.893992,-87.629318,"casual"
"89C2D1F74DB878A5","electric_bike","2022-07-17 15:54:08","2022-07-17 16:20:17","Morgan St & 18th St","13163","Green St & Madison St","TA1307000120",41.858052,-87.6512563333333,41.881892,-87.648789,"casual"
"E229B5EB3A9E7EC5","electric_bike","2022-07-10 09:56:36","2022-07-10 10:08:25","McClurg Ct & Ohio St","TA1306000029","Wabash Ave & 9th St","TA1309000010",41.8926846666667,-87.6174205,41.870769,-87.625734,"member"
"6AB3C1A3AC967049","classic_bike","2022-07-02 22:08:20","2022-07-02 22:39:44","Theater on the Lake","TA1308000001","Montrose Harbor","TA1308000012",41.926277,-87.630834,41.963982,-87.638181,"casual"
"117C577DEC2F46B4","electric_bike","2022-07-24 00:09:16","2022-07-24 00:26:25","Wells St & Evergreen Ave","TA1308000049","Sangamon St & Washington Blvd","13409",41.9067068333333,-87.6350786666667,41.883165,-87.6511,"casual"
"5175601BDE48D10F","electric_bike","2022-07-09 16:37:53","2022-07-09 17:59:01","Michigan Ave & 8th St","623","Clark St & Lincoln Ave","13179",41.8727583333333,-87.6238348333333,41.915689,-87.6346,"casual"
"BC34D3841A2E4164","classic_bike","2022-07-28 18:07:37","2022-07-28 18:30:20","Walsh Park","18067","Clark St & Newport St","632",41.91461,-87.667968,41.94454,-87.654678,"casual"
"3F6D22CD336895BF","electric_bike","2022-07-01 18:05:44","2022-07-01 18:23:22","DuSable Lake Shore Dr & Diversey Pkwy","TA1309000039","Dusable Harbor","KA1503000064",41.9325378333333,-87.636413,41.886976,-87.612813,"member"
"06B1FF2215B138DA","classic_bike","2022-07-01 08:40:13","2022-07-01 08:53:07","Wells St & Huron St","TA1306000012","Aberdeen St & Randolph St","18062",41.894722,-87.634362,41.884114,-87.654264,"casual"
"32A5D9DDCB498890","classic_bike","2022-07-02 16:55:57","2022-07-02 17:27:52","Streeter Dr & Grand Ave","13022","DuSable Lake Shore Dr & Belmont Ave","TA1309000049",41.892278,-87.612043,41.940775,-87.639192,"casual"
"CF50DAC40976F68F","electric_bike","2022-07-14 17:01:26","2022-07-14 17:09:31","Winchester Ave & Elston Ave","KA1504000140","California Ave & Milwaukee Ave","13084",41.9240605,-87.676436,41.922695,-87.697153,"member"
"FA5CA355D0B2C4AF","classic_bike","2022-07-12 16:16:22","2022-07-12 17:12:50","Wells St & Evergreen Ave","TA1308000049","Wells St & Huron St","TA1306000012",41.906724,-87.63483,41.894722,-87.634362,"casual"
"E2F29D582F2E65DD","electric_bike","2022-07-20 22:43:10","2022-07-20 23:00:43","Lamon Ave & Belmont Ave","316","Lamon Ave & Belmont Ave","316",41.94,-87.75,41.94,-87.75,"member"
"AAF6AD98086F5C41","classic_bike","2022-07-12 20:52:35","2022-07-12 21:00:45","Millennium Park","13008","McClurg Ct & Ohio St","TA1306000029",41.8810317,-87.62408432,41.8925921197097,-87.6172891259193,"member"
"D415D8D30E0DD00F","classic_bike","2022-07-20 18:43:12","2022-07-20 18:53:56","Clark St & Armitage Ave","13146","Sheffield Ave & Fullerton Ave","TA1306000016",41.918306,-87.636282,41.9256018819,-87.6537080423,"casual"
"AAB7B551586CBA0E","electric_bike","2022-07-28 14:12:42","2022-07-28 14:44:25","","","","",41.88,-87.64,41.95,-87.66,"member"
"914055EC463CD5C2","electric_bike","2022-07-20 17:28:34","2022-07-20 17:48:51","Racine Ave & Belmont Ave","TA1308000019","Montrose Harbor","TA1308000012",41.9396561666667,-87.6588623333333,41.963982,-87.638181,"member"
"92ED79746155351A","electric_bike","2022-07-05 22:05:13","2022-07-05 22:08:03","Wells St & Concord Ln","TA1308000050","Clark St & Armitage Ave","13146",41.9119526666667,-87.6347858333333,41.918306,-87.636282,"member"
"DD65CF07CF1E6803","electric_bike","2022-07-29 22:31:48","2022-07-29 22:58:42","Wood St & Milwaukee Ave","13221","","",41.9076306666667,-87.6725785,41.91,-87.67,"casual"
"8B1ED604310ADB76","classic_bike","2022-07-05 10:41:08","2022-07-05 10:47:03","Wells St & Huron St","TA1306000012","Wells St & Evergreen Ave","TA1308000049",41.894722,-87.634362,41.906724,-87.63483,"member"
"AEE7F5C4636CC305","electric_bike","2022-07-30 00:49:33","2022-07-30 00:58:59","","","","",41.95,-87.66,41.93,-87.67,"member"
"7465449D5220C12C","classic_bike","2022-07-23 10:28:14","2022-07-23 10:28:33","Lincoln Ave & Diversey Pkwy","TA1307000064","Lincoln Ave & Diversey Pkwy","TA1307000064",41.932225,-87.658617,41.932225,-87.658617,"casual"
"774229B988094B9C","classic_bike","2022-07-14 14:17:57","2022-07-14 14:22:50","Clark St & Wellington Ave","TA1307000136","Clark St & Wrightwood Ave","TA1305000014",41.9364968219,-87.6475386582,41.929546,-87.643118,"member"
"7B9D19B4F13FF001","electric_bike","2022-07-07 09:34:14","2022-07-07 09:45:05","Federal St & Polk St","SL-008","Clark St & Randolph St","TA1305000030",41.872033,-87.6295218333333,41.884576228,-87.63188991,"casual"
"023D99465EC3C9F1","classic_bike","2022-07-10 15:39:14","2022-07-10 15:43:40","California Ave & Montrose Ave","15622","Western Ave & Leland Ave","TA1307000140",41.961068,-87.695439,41.966399801841,-87.6887042820454,"member"
"41E71854F4ABFE28","electric_bike","2022-07-11 14:13:01","2022-07-11 14:32:04","Kingsbury St & Kinzie St","KA1503000043","","",41.8891996666667,-87.6383863333333,41.93,-87.66,"member"
"D121CB1799A2BA6C","electric_bike","2022-07-17 14:47:42","2022-07-17 15:04:11","Aberdeen St & Randolph St","18062","","",41.884098,-87.6543038333333,41.89,-87.67,"member"
"48465D40830BF2C8","electric_bike","2022-07-27 06:54:03","2022-07-27 07:23:30","Wilton Ave & Diversey Pkwy","TA1306000014","Fairbanks St & Superior St","18003",41.9323915,-87.6526661666667,41.895748,-87.620104,"member"
"D59711C6CED7E20B","classic_bike","2022-07-12 14:53:55","2022-07-12 15:03:49","Clifton Ave & Armitage Ave","TA1307000163","Lincoln Park Conservatory","LP-",41.918216,-87.656936,41.9239313113662,-87.6358245313168,"member"
"0148C2A0C775978C","electric_bike","2022-07-03 13:35:38","2022-07-03 13:43:50","","","","",41.95,-87.67,41.95,-87.66,"casual"
"66C6B9BF452E2223","classic_bike","2022-07-19 22:48:06","2022-07-19 22:54:43","Sheridan Rd & Columbia Ave","660","Greenview Ave & Jarvis Ave","520",42.004583,-87.661406,42.015962,-87.66857,"member"
"FC64BB7FCA5549E9","classic_bike","2022-07-21 17:41:50","2022-07-21 17:55:12","Lincoln Ave & Diversey Pkwy","TA1307000064","Wells St & Concord Ln","TA1308000050",41.932225,-87.658617,41.912133,-87.634656,"casual"
